[
  {
    "name": "えりも本町店",
    "prefecture": "北海道",
    "prefNum": 1,
    "gum": true,
    "stands": false,
    "file": true,
    "addressFormattedByGoogle": "日本、〒058-0204 北海道幌泉郡えりも町本町４８−２２",
    "latitude": 42.0182435,
    "longitude": 143.1453663,
    "locationType": "ROOFTOP",
    "placeId": "ChIJ_YDE_7w5cl8RjptufnuvE8s",
    "globalPlusCode": "8RJ5249W+74"
  },
  {
    "name": "さっぽろ創世スクエア店",
    "prefecture": "北海道",
    "prefNum": 1,
    "gum": true,
    "stands": false,
    "file": false,
    "addressFormattedByGoogle": "日本、〒060-0001 北海道札幌市中央区北１条西１丁目６",
    "latitude": 43.0633788,
    "longitude": 141.3554098,
    "locationType": "ROOFTOP",
    "placeId": "ChIJWS9-5F4pC18RkHLVyyfkjeU",
    "globalPlusCode": "8RM33974+95"
  },
  {
    "name": "ニセコ店",
    "prefecture": "北海道",
    "prefNum": 1,
    "gum": true,
    "stands": true,
    "file": true,
    "addressFormattedByGoogle": "日本、〒048-1522 北海道虻田郡ニセコ町曽我４４−６",
    "latitude": 42.812278,
    "longitude": 140.6776271,
    "locationType": "ROOFTOP",
    "placeId": "ChIJa6l-e1auCl8RftAgFPg-GUM",
    "globalPlusCode": "8RJ2RM6H+W3"
  },
  {
    "name": "七飯バイパス店",
    "prefecture": "北海道",
    "prefNum": 1,
    "gum": true,
    "stands": false,
    "file": false,
    "addressFormattedByGoogle": "日本、〒041-1102 北海道亀田郡七飯町峠下７６−１",
    "latitude": 41.9253333,
    "longitude": 140.6548952,
    "locationType": "ROOFTOP",
    "placeId": "ChIJRUf12aP4nl8RSBUiRaRR1R0",
    "globalPlusCode": "8RH2WMG3+4X"
  },
  {
    "name": "七飯大沼店",
    "prefecture": "北海道",
    "prefNum": 1,
    "gum": true,
    "stands": false,
    "file": false,
    "addressFormattedByGoogle": "日本、〒041-1354 北海道亀田郡七飯町大沼町７９９−６",
    "latitude": 41.9717793,
    "longitude": 140.6703322,
    "locationType": "ROOFTOP",
    "placeId": "ChIJtUfTVEpUnl8RBcPYHqF0jj0",
    "globalPlusCode": "8RH2XMCC+P4"
  },
  {
    "name": "七飯本町店",
    "prefecture": "北海道",
    "prefNum": 1,
    "gum": true,
    "stands": false,
    "file": false,
    "addressFormattedByGoogle": "日本、〒041-1111 北海道亀田郡七飯町本町１丁目１６−５０",
    "latitude": 41.8931476,
    "longitude": 140.6877157,
    "locationType": "ROOFTOP",
    "placeId": "ChIJcWcKlRT4nl8RBbBkeilndzM",
    "globalPlusCode": "8RH2VMVQ+73"
  },
  {
    "name": "三笠道の駅店",
    "prefecture": "北海道",
    "prefNum": 1,
    "gum": true,
    "stands": false,
    "file": false,
    "addressFormattedByGoogle": "日本、〒068-2165 北海道三笠市岡山１０５６−８",
    "latitude": 43.2468678,
    "longitude": 141.804369,
    "locationType": "ROOFTOP",
    "placeId": "ChIJHRoLn5ROC18R70XX2hBrijc",
    "globalPlusCode": "8RM36RW3+PP"
  },
  {
    "name": "上士幌町店",
    "prefecture": "北海道",
    "prefNum": 1,
    "gum": true,
    "stands": false,
    "file": false,
    "addressFormattedByGoogle": "日本、〒080-1408 北海道河東郡上士幌町上士幌東３線２３３",
    "latitude": 43.2283584,
    "longitude": 143.2936216,
    "locationType": "ROOFTOP",
    "placeId": "ChIJH9EnC1kbc18R-avDSeK7ZEc",
    "globalPlusCode": "8RM567HV+8C"
  },
  {
    "name": "上富良野栄町店",
    "prefecture": "北海道",
    "prefNum": 1,
    "gum": true,
    "stands": false,
    "file": true,
    "addressFormattedByGoogle": "日本、〒071-0544 北海道空知郡上富良野町栄町３丁目２−４",
    "latitude": 43.463771,
    "longitude": 142.464517,
    "locationType": "ROOFTOP",
    "placeId": "ChIJA5BjvOy1DF8RzgNnEYL6fC8",
    "globalPlusCode": "8RM4FF77+GR"
  },
  {
    "name": "上川比布町店",
    "prefecture": "北海道",
    "prefNum": 1,
    "gum": true,
    "stands": true,
    "file": true,
    "addressFormattedByGoogle": "日本、〒078-0310 北海道上川郡比布町基線７",
    "latitude": 43.8700893,
    "longitude": 142.4848789,
    "locationType": "ROOFTOP",
    "placeId": "ChIJPZ2OoH8dDV8RCpBnNa6oKAs",
    "globalPlusCode": "8RM4VFCM+2X"
  },
  {
    "name": "上川美瑛店",
    "prefecture": "北海道",
    "prefNum": 1,
    "gum": true,
    "stands": false,
    "file": false,
    "addressFormattedByGoogle": "日本、〒071-0206 北海道上川郡美瑛町北町２丁目６−２０",
    "latitude": 43.5968068,
    "longitude": 142.4628774,
    "locationType": "ROOFTOP",
    "placeId": "ChIJSbiWdMXFDF8R1v3-knqV4Lw",
    "globalPlusCode": "8RM4HFW7+P5"
  },
  {
    "name": "上芦別店",
    "prefecture": "北海道",
    "prefNum": 1,
    "gum": true,
    "stands": false,
    "file": false,
    "addressFormattedByGoogle": "日本、〒079-1371 北海道芦別市上芦別町７９−１",
    "latitude": 43.4955425,
    "longitude": 142.204617,
    "locationType": "ROOFTOP",
    "placeId": "ChIJARd9W-W6DF8Ry-PGTZcpFyQ",
    "globalPlusCode": "8RM4F6W3+6R"
  },
  {
    "name": "中標津東中店",
    "prefecture": "北海道",
    "prefNum": 1,
    "gum": true,
    "stands": false,
    "file": false,
    "addressFormattedByGoogle": "日本、〒086-1051 北海道標津郡東１１条北５丁目 中標津町東１１条北５丁目４－１",
    "latitude": 43.55750889999999,
    "longitude": 144.979113,
    "locationType": "GEOMETRIC_CENTER",
    "placeId": "ChIJ9_7AbbilbV8R67wcl-vNGXk",
    "globalPlusCode": "8RM6HX5H+2J"
  },
  {
    "name": "中標津東店",
    "prefecture": "北海道",
    "prefNum": 1,
    "gum": true,
    "stands": false,
    "file": false,
    "addressFormattedByGoogle": "日本、〒086-1039 北海道標津郡中標津町東３９条南１丁目１番地−６",
    "latitude": 43.567743,
    "longitude": 145.0101982,
    "locationType": "ROOFTOP",
    "placeId": "ChIJq6q7Nz3hAGARzncPI_nxcKI",
    "globalPlusCode": "8RM7H296+33"
  },
  {
    "name": "伊達インター店",
    "prefecture": "北海道",
    "prefNum": 1,
    "gum": false,
    "stands": true,
    "file": false,
    "addressFormattedByGoogle": "日本、〒052-0012 北海道伊達市松ヶ枝町６１−１４",
    "latitude": 42.47235,
    "longitude": 140.8820379,
    "locationType": "ROOFTOP",
    "placeId": "ChIJq6ouHizeAGARXn9cAM2Qhio",
    "globalPlusCode": "8RJ2FVCJ+WR"
  },
  {
    "name": "余市大川店",
    "prefecture": "北海道",
    "prefNum": 1,
    "gum": true,
    "stands": false,
    "file": false,
    "addressFormattedByGoogle": "日本、〒046-0004 北海道余市郡余市町大川町１９丁目１１",
    "latitude": 43.1922419,
    "longitude": 140.8171112,
    "locationType": "ROOFTOP",
    "placeId": "ChIJhza8E7flCl8RoEgpThFCKu4",
    "globalPlusCode": "8RM25RR8+VR"
  },
  {
    "name": "余市大川8丁目店",
    "prefecture": "北海道",
    "prefNum": 1,
    "gum": true,
    "stands": false,
    "file": false,
    "addressFormattedByGoogle": "日本、〒046-0004 北海道余市郡余市町大川町８丁目４３−１",
    "latitude": 43.1920924,
    "longitude": 140.8007675,
    "locationType": "ROOFTOP",
    "placeId": "ChIJSb42zrzlCl8RyQpmI3HUo0Y",
    "globalPlusCode": "8RM25RR2+R8"
  },
  {
    "name": "余市富沢店",
    "prefecture": "北海道",
    "prefNum": 1,
    "gum": true,
    "stands": false,
    "file": false,
    "addressFormattedByGoogle": "日本、〒046-0025 北海道余市郡余市町富沢町７丁目１９",
    "latitude": 43.2063166,
    "longitude": 140.7708605,
    "locationType": "ROOFTOP",
    "placeId": "ChIJVVXa2vYGAWARgDXhCHDtuZc",
    "globalPlusCode": "8RM26Q4C+G8"
  },
  {
    "name": "余市黒川15丁目店",
    "prefecture": "北海道",
    "prefNum": 1,
    "gum": true,
    "stands": false,
    "file": false,
    "addressFormattedByGoogle": "日本、〒046-0003 北海道余市郡余市町黒川町１５丁目２４番地５",
    "latitude": 43.183028,
    "longitude": 140.8042432,
    "locationType": "ROOFTOP",
    "placeId": "ChIJpbY_EO3lCl8RLNFtMTD-uIA",
    "globalPlusCode": "8RM25RM3+6M"
  },
  {
    "name": "倶知安南4条店",
    "prefecture": "北海道",
    "prefNum": 1,
    "gum": true,
    "stands": false,
    "file": false,
    "addressFormattedByGoogle": "日本、〒044-0014 北海道虻田郡倶知安町南４条東１丁目１",
    "latitude": 42.89876659999999,
    "longitude": 140.7527488,
    "locationType": "ROOFTOP",
    "placeId": "ChIJqdG87gS6Cl8RCupLvNX6cLU",
    "globalPlusCode": "8RJ2VQX3+G3"
  },
  {
    "name": "倶知安基町店",
    "prefecture": "北海道",
    "prefNum": 1,
    "gum": true,
    "stands": true,
    "file": true,
    "addressFormattedByGoogle": "日本、〒044-0053 北海道虻田郡倶知安町北３条西２丁目６",
    "latitude": 42.9039454,
    "longitude": 140.7481288,
    "locationType": "ROOFTOP",
    "placeId": "ChIJ-wodAhy6Cl8Ru3IAAlF56-M",
    "globalPlusCode": "8RJ2WP3X+H7"
  },
  {
    "name": "八雲住初町店",
    "prefecture": "北海道",
    "prefNum": 1,
    "gum": true,
    "stands": false,
    "file": false,
    "addressFormattedByGoogle": "日本、〒049-3111 北海道二海郡八雲町住初町１３",
    "latitude": 42.25544,
    "longitude": 140.265809,
    "locationType": "ROOFTOP",
    "placeId": "ChIJt8E8mrWen18Rljzcrc2Tkqo",
    "globalPlusCode": "8RJ27748+58"
  },
  {
    "name": "函館フェリー埠頭前店",
    "prefecture": "北海道",
    "prefNum": 1,
    "gum": true,
    "stands": false,
    "file": false,
    "addressFormattedByGoogle": "日本、〒041-0821 北海道函館市港町３丁目１７−１２",
    "latitude": 41.8104059,
    "longitude": 140.7140581,
    "locationType": "ROOFTOP",
    "placeId": "ChIJFwqD6672nl8RpfR0VMv7JfQ",
    "globalPlusCode": "8RH2RP67+5J"
  },
  {
    "name": "函館ベイエリア店",
    "prefecture": "北海道",
    "prefNum": 1,
    "gum": true,
    "stands": false,
    "file": false,
    "addressFormattedByGoogle": "日本、〒040-0065 北海道函館市豊川町２４−７",
    "latitude": 41.76746500000001,
    "longitude": 140.721386,
    "locationType": "ROOFTOP",
    "placeId": "ChIJV0qZEqfznl8RoRWNVcRvYHg",
    "globalPlusCode": "8RH2QP8C+XH"
  },
  {
    "name": "函館上湯川町店",
    "prefecture": "北海道",
    "prefNum": 1,
    "gum": true,
    "stands": false,
    "file": false,
    "addressFormattedByGoogle": "日本、〒042-0914 北海道函館市上湯川町４７−１３",
    "latitude": 41.7856841,
    "longitude": 140.810746,
    "locationType": "ROOFTOP",
    "placeId": "ChIJXXTUO-H0nl8RvL_8thfDFO0",
    "globalPlusCode": "8RH2QRP6+77"
  },
  {
    "name": "函館中道中央店",
    "prefecture": "北海道",
    "prefNum": 1,
    "gum": true,
    "stands": false,
    "file": false,
    "addressFormattedByGoogle": "日本、〒041-0853 北海道函館市中道１丁目２４−２８",
    "latitude": 41.8041625,
    "longitude": 140.759481,
    "locationType": "ROOFTOP",
    "placeId": "ChIJAQAcYsLjAGARPDyVb6cIoz0",
    "globalPlusCode": "8RH2RQ35+MQ"
  },
  {
    "name": "函館中道2丁目店",
    "prefecture": "北海道",
    "prefNum": 1,
    "gum": true,
    "stands": false,
    "file": false,
    "addressFormattedByGoogle": "日本、〒041-0853 北海道函館市中道２丁目３８−５",
    "latitude": 41.8087633,
    "longitude": 140.7572282,
    "locationType": "ROOFTOP",
    "placeId": "ChIJU7nFqjv0nl8R5MUdBeTMy1s",
    "globalPlusCode": "8RH2RQ54+GV"
  },
  {
    "name": "函館五稜郭公園前店",
    "prefecture": "北海道",
    "prefNum": 1,
    "gum": true,
    "stands": false,
    "file": false,
    "addressFormattedByGoogle": "日本、〒040-0001 北海道函館市五稜郭町３０−１",
    "latitude": 41.7940236,
    "longitude": 140.7519476,
    "locationType": "ROOFTOP",
    "placeId": "ChIJrxkc1G30nl8R4P8Gwit4e3w",
    "globalPlusCode": "8RH2QQV2+JQ"
  },
  {
    "name": "函館五稜郭機関区前店",
    "prefecture": "北海道",
    "prefNum": 1,
    "gum": true,
    "stands": false,
    "file": false,
    "addressFormattedByGoogle": "日本、〒041-0812 北海道函館市昭和４丁目２０−２",
    "latitude": 41.8127727,
    "longitude": 140.7328627,
    "locationType": "ROOFTOP",
    "placeId": "ChIJAQCReXHkGGARE3ryBOjlMyQ",
    "globalPlusCode": "8RH2RP7M+44"
  },
  {
    "name": "函館人見町店",
    "prefecture": "北海道",
    "prefNum": 1,
    "gum": true,
    "stands": false,
    "file": false,
    "addressFormattedByGoogle": "日本、〒040-0005 北海道函館市人見町５−２４ セブンイレブン函館人見町店",
    "latitude": 41.784479,
    "longitude": 140.758297,
    "locationType": "ROOFTOP",
    "placeId": "ChIJXfaOWXz0nl8R7jb3oJPi_zM",
    "globalPlusCode": "8RH2QQM5+Q8"
  },
  {
    "name": "函館南桔梗店",
    "prefecture": "北海道",
    "prefNum": 1,
    "gum": true,
    "stands": false,
    "file": false,
    "addressFormattedByGoogle": "日本、〒041-0808 北海道函館市桔梗２丁目１９−６",
    "latitude": 41.83889689999999,
    "longitude": 140.7272268,
    "locationType": "ROOFTOP",
    "placeId": "ChIJq6oad-fFDF8RRiFiTS6ZSmg",
    "globalPlusCode": "8RH2RPQG+HV"
  },
  {
    "name": "函館大縄八幡通店",
    "prefecture": "北海道",
    "prefNum": 1,
    "gum": true,
    "stands": false,
    "file": false,
    "addressFormattedByGoogle": "日本、〒040-0062 北海道函館市大縄町２１−１",
    "latitude": 41.781339,
    "longitude": 140.7338695,
    "locationType": "ROOFTOP",
    "placeId": "ChIJyzfUY4Xznl8R1tFeizrdz6w",
    "globalPlusCode": "8RH2QPJM+GG"
  },
  {
    "name": "函館宮前町店",
    "prefecture": "北海道",
    "prefNum": 1,
    "gum": true,
    "stands": false,
    "file": false,
    "addressFormattedByGoogle": "日本、〒040-0073 北海道函館市宮前町２−１４",
    "latitude": 41.78891000000001,
    "longitude": 140.7405755,
    "locationType": "ROOFTOP",
    "placeId": "ChIJf5hId3b0nl8RdHYmURjhCZw",
    "globalPlusCode": "8RH2QPQR+H6"
  },
  {
    "name": "函館富岡町店",
    "prefecture": "北海道",
    "prefNum": 1,
    "gum": true,
    "stands": false,
    "file": false,
    "addressFormattedByGoogle": "日本、〒041-0811 北海道函館市富岡町２丁目４５−１１ セブンイレブン函館富岡町店",
    "latitude": 41.8099816,
    "longitude": 140.7501486,
    "locationType": "ROOFTOP",
    "placeId": "ChIJh4UNYiP0nl8R5u1LW-nDNPc",
    "globalPlusCode": "8RH2RQ52+X3"
  },
  {
    "name": "函館山の手2丁目店",
    "prefecture": "北海道",
    "prefNum": 1,
    "gum": true,
    "stands": false,
    "file": false,
    "addressFormattedByGoogle": "日本、〒041-0836 北海道函館市山の手２丁目４−５",
    "latitude": 41.8040359,
    "longitude": 140.7763783,
    "locationType": "ROOFTOP",
    "placeId": "ChIJq6qOsQ6fWjURr6TadkKpKT0",
    "globalPlusCode": "8RH2RQ3G+JH"
  },
  {
    "name": "函館弁天町店",
    "prefecture": "北海道",
    "prefNum": 1,
    "gum": true,
    "stands": false,
    "file": false,
    "addressFormattedByGoogle": "日本、〒040-0051 北海道函館市弁天町１８−２",
    "latitude": 41.772715,
    "longitude": 140.705631,
    "locationType": "ROOFTOP",
    "placeId": "ChIJ28DhBEg9cl8RsHI2UGSyfmU",
    "globalPlusCode": "8RH2QPF4+37"
  },
  {
    "name": "函館日吉が丘店",
    "prefecture": "北海道",
    "prefNum": 1,
    "gum": true,
    "stands": false,
    "file": true,
    "addressFormattedByGoogle": "日本、〒041-0841 北海道函館市日吉町３丁目１７−２０",
    "latitude": 41.799461,
    "longitude": 140.7891829,
    "locationType": "ROOFTOP",
    "placeId": "ChIJAQDQ5kURdV8R5jc7hdHe0bQ",
    "globalPlusCode": "8RH2QQXQ+QM"
  },
  {
    "name": "函館日吉中央通店",
    "prefecture": "北海道",
    "prefNum": 1,
    "gum": true,
    "stands": false,
    "file": false,
    "addressFormattedByGoogle": "日本、〒041-0841 北海道函館市日吉町２丁目１０−１９",
    "latitude": 41.79179269999999,
    "longitude": 140.7909955,
    "locationType": "ROOFTOP",
    "placeId": "ChIJq6oFe9UWdV8RnIKK2vRqNyg",
    "globalPlusCode": "8RH2QQRR+P9"
  },
  {
    "name": "函館昭和1丁目店",
    "prefecture": "北海道",
    "prefNum": 1,
    "gum": true,
    "stands": false,
    "file": false,
    "addressFormattedByGoogle": "日本、〒041-0812 北海道函館市昭和１丁目１８−８",
    "latitude": 41.81588139999999,
    "longitude": 140.741782,
    "locationType": "ROOFTOP",
    "placeId": "ChIJ__9kP62JEl8R8tSEheyMCAs",
    "globalPlusCode": "8RH2RP8R+9P"
  },
  {
    "name": "函館昭和2丁目店",
    "prefecture": "北海道",
    "prefNum": 1,
    "gum": true,
    "stands": false,
    "file": false,
    "addressFormattedByGoogle": "日本、〒041-0812 北海道函館市昭和２丁目２８−１",
    "latitude": 41.8122986,
    "longitude": 140.7361782,
    "locationType": "ROOFTOP",
    "placeId": "ChIJwamV-x_0nl8RC_2GNofJQxo",
    "globalPlusCode": "8RH2RP6P+WF"
  },
  {
    "name": "函館昭和3丁目店",
    "prefecture": "北海道",
    "prefNum": 1,
    "gum": true,
    "stands": false,
    "file": false,
    "addressFormattedByGoogle": "日本、〒041-0812 北海道函館市昭和３丁目３０−７",
    "latitude": 41.822391,
    "longitude": 140.739307,
    "locationType": "ROOFTOP",
    "placeId": "ChIJNR1KzZr2nl8RPjFtHTaflLc",
    "globalPlusCode": "8RH2RPCQ+XP"
  },
  {
    "name": "函館時任町店",
    "prefecture": "北海道",
    "prefNum": 1,
    "gum": true,
    "stands": true,
    "file": false,
    "addressFormattedByGoogle": "日本、〒040-0012 北海道函館市時任町２３−４ セブンイレブン函館時任町店",
    "latitude": 41.781119,
    "longitude": 140.7537201,
    "locationType": "ROOFTOP",
    "placeId": "ChIJL0DBsX_0nl8RDe3mAjMC_2c",
    "globalPlusCode": "8RH2QQJ3+CF"
  },
  {
    "name": "函館本町店",
    "prefecture": "北海道",
    "prefNum": 1,
    "gum": true,
    "stands": true,
    "file": true,
    "addressFormattedByGoogle": "日本、〒040-0011 北海道函館市本町２３−４",
    "latitude": 41.7905106,
    "longitude": 140.7519677,
    "locationType": "ROOFTOP",
    "placeId": "ChIJj1C6O3D0nl8R8WKbG5avMRE",
    "globalPlusCode": "8RH2QQR2+6Q"
  },
  {
    "name": "函館本通店",
    "prefecture": "北海道",
    "prefNum": 1,
    "gum": true,
    "stands": false,
    "file": true,
    "addressFormattedByGoogle": "日本、〒041-0851 北海道函館市本通２丁目１３−２９",
    "latitude": 41.794868,
    "longitude": 140.7711812,
    "locationType": "ROOFTOP",
    "placeId": "ChIJj7wac-_1nl8RX5mM4DAaGKM",
    "globalPlusCode": "8RH2QQVC+WF"
  },
  {
    "name": "函館本通2丁目店",
    "prefecture": "北海道",
    "prefNum": 1,
    "gum": true,
    "stands": false,
    "file": false,
    "addressFormattedByGoogle": "日本、〒041-0851 北海道函館市本通２丁目３９−１５",
    "latitude": 41.800004,
    "longitude": 140.770429,
    "locationType": "ROOFTOP",
    "placeId": "ChIJN6TGSUT0nl8Ru7BV1MjwKvs",
    "globalPlusCode": "8RH2RQ2C+25"
  },
  {
    "name": "函館東山店",
    "prefecture": "北海道",
    "prefNum": 1,
    "gum": true,
    "stands": false,
    "file": false,
    "addressFormattedByGoogle": "日本、〒041-0835 北海道函館市東山２丁目１０−２７",
    "latitude": 41.8086876,
    "longitude": 140.7714406,
    "locationType": "ROOFTOP",
    "placeId": "ChIJ6XAP2DX0nl8RKWka1ZKC1tE",
    "globalPlusCode": "8RH2RQ5C+FH"
  },
  {
    "name": "函館東川町店",
    "prefecture": "北海道",
    "prefNum": 1,
    "gum": true,
    "stands": false,
    "file": false,
    "addressFormattedByGoogle": "日本、〒040-0042 北海道函館市東川町２１−７",
    "latitude": 41.763399,
    "longitude": 140.725402,
    "locationType": "ROOFTOP",
    "placeId": "ChIJ6fR8zwjznl8R4sjutECvj18",
    "globalPlusCode": "8RH2QP7G+95"
  },
  {
    "name": "函館松見通店",
    "prefecture": "北海道",
    "prefNum": 1,
    "gum": true,
    "stands": true,
    "file": true,
    "addressFormattedByGoogle": "日本、〒041-0851 北海道函館市本通１丁目２１−１",
    "latitude": 41.7981997,
    "longitude": 140.7622665,
    "locationType": "ROOFTOP",
    "placeId": "ChIJV7lK9UH0nl8RJRX4azubXQs",
    "globalPlusCode": "8RH2QQX6+7W"
  },
  {
    "name": "函館柏木町店",
    "prefecture": "北海道",
    "prefNum": 1,
    "gum": true,
    "stands": false,
    "file": false,
    "addressFormattedByGoogle": "日本、〒042-0942 北海道函館市柏木町４１−８",
    "latitude": 41.7914702,
    "longitude": 140.7703929,
    "locationType": "ROOFTOP",
    "placeId": "ChIJq6o6g5Y5C18RzA3XNys67AE",
    "globalPlusCode": "8RH2QQRC+H5"
  },
  {
    "name": "函館桐花通店",
    "prefecture": "北海道",
    "prefNum": 1,
    "gum": true,
    "stands": false,
    "file": false,
    "addressFormattedByGoogle": "日本、〒041-0813 北海道函館市亀田本町２３−１７",
    "latitude": 41.8061635,
    "longitude": 140.7411661,
    "locationType": "ROOFTOP",
    "placeId": "ChIJp9nkshn0nl8RJuPcU6OXv0M",
    "globalPlusCode": "8RH2RP4R+FF"
  },
  {
    "name": "函館桔梗3丁目店",
    "prefecture": "北海道",
    "prefNum": 1,
    "gum": true,
    "stands": false,
    "file": false,
    "addressFormattedByGoogle": "日本、〒041-0808 北海道函館市桔梗３丁目２２−１１",
    "latitude": 41.84787600000001,
    "longitude": 140.729646,
    "locationType": "ROOFTOP",
    "placeId": "ChIJdztor1P2nl8Rq3pFwMupw58",
    "globalPlusCode": "8RH2RPXH+5V"
  },
  {
    "name": "函館海岸町店",
    "prefecture": "北海道",
    "prefNum": 1,
    "gum": true,
    "stands": false,
    "file": false,
    "addressFormattedByGoogle": "日本、〒040-0061 北海道函館市海岸町４−１１",
    "latitude": 41.7798234,
    "longitude": 140.7301502,
    "locationType": "ROOFTOP",
    "placeId": "ChIJH2RKnJrznl8R2gPqRZytaDQ",
    "globalPlusCode": "8RH2QPHJ+W3"
  },
  {
    "name": "函館港町1丁目店",
    "prefecture": "北海道",
    "prefNum": 1,
    "gum": true,
    "stands": false,
    "file": true,
    "addressFormattedByGoogle": "日本、〒041-0821 北海道函館市港町１丁目２３−７",
    "latitude": 41.8034419,
    "longitude": 140.7231696,
    "locationType": "ROOFTOP",
    "placeId": "ChIJpZI24gP0nl8RK_vm8ZaiFns",
    "globalPlusCode": "8RH2RP3F+97"
  },
  {
    "name": "函館港町2丁目店",
    "prefecture": "北海道",
    "prefNum": 1,
    "gum": true,
    "stands": true,
    "file": true,
    "addressFormattedByGoogle": "日本、〒041-0821 北海道函館市港町２丁目８−６ セブンイレブン函館港町２丁目店",
    "latitude": 41.8085874,
    "longitude": 140.7217282,
    "locationType": "ROOFTOP",
    "placeId": "ChIJJx6jaaj2nl8RWwK_rj0dn_s",
    "globalPlusCode": "8RH2RP5C+CM"
  },
  {
    "name": "函館湯川町店",
    "prefecture": "北海道",
    "prefNum": 1,
    "gum": true,
    "stands": false,
    "file": false,
    "addressFormattedByGoogle": "日本、〒042-0932 北海道函館市湯川町２丁目９−１６",
    "latitude": 41.7779815,
    "longitude": 140.7881715,
    "locationType": "ROOFTOP",
    "placeId": "ChIJ-TuUhpP0nl8ROara19sfGQk",
    "globalPlusCode": "8RH2QQHQ+57"
  },
  {
    "name": "函館田家町店",
    "prefecture": "北海道",
    "prefNum": 1,
    "gum": true,
    "stands": false,
    "file": false,
    "addressFormattedByGoogle": "日本、〒040-0081 北海道函館市田家町１８−７ セブンイレブン函館田家町店",
    "latitude": 41.797598,
    "longitude": 140.744174,
    "locationType": "ROOFTOP",
    "placeId": "ChIJZauSkhL0nl8Rph4xEzo8cck",
    "globalPlusCode": "8RH2QPXV+2M"
  },
  {
    "name": "函館石川町店",
    "prefecture": "北海道",
    "prefNum": 1,
    "gum": true,
    "stands": false,
    "file": false,
    "addressFormattedByGoogle": "日本、〒041-0802 北海道函館市石川町４５０−１",
    "latitude": 41.8307747,
    "longitude": 140.7422415,
    "locationType": "ROOFTOP",
    "placeId": "ChIJAQCMWNH6G2ARq6Ver3DQ45M",
    "globalPlusCode": "8RH2RPJR+8V"
  },
  {
    "name": "函館神山店",
    "prefecture": "北海道",
    "prefNum": 1,
    "gum": true,
    "stands": false,
    "file": false,
    "addressFormattedByGoogle": "日本、〒041-0832 北海道函館市神山２丁目５−５",
    "latitude": 41.8116653,
    "longitude": 140.7675004,
    "locationType": "ROOFTOP",
    "placeId": "ChIJq6oO9ATiAGARX1Wf7sRYN7w",
    "globalPlusCode": "8RH2RQ69+M2"
  },
  {
    "name": "函館競馬場前店",
    "prefecture": "北海道",
    "prefNum": 1,
    "gum": true,
    "stands": false,
    "file": false,
    "addressFormattedByGoogle": "日本、〒042-0932 北海道函館市湯川町１丁目４１−７",
    "latitude": 41.782187,
    "longitude": 140.7809671,
    "locationType": "ROOFTOP",
    "placeId": "ChIJMVVEr430nl8RSxH1chA4JXY",
    "globalPlusCode": "8RH2QQJJ+V9"
  },
  {
    "name": "函館美原産業道路店",
    "prefecture": "北海道",
    "prefNum": 1,
    "gum": true,
    "stands": false,
    "file": false,
    "addressFormattedByGoogle": "日本、〒041-0806 北海道函館市美原３丁目８−９",
    "latitude": 41.8165243,
    "longitude": 140.751477,
    "locationType": "ROOFTOP",
    "placeId": "ChIJm9Griij0nl8RqiWt0LEKTd8",
    "globalPlusCode": "8RH2RQ82+JH"
  },
  {
    "name": "函館臨港通店",
    "prefecture": "北海道",
    "prefNum": 1,
    "gum": true,
    "stands": false,
    "file": false,
    "addressFormattedByGoogle": "日本、〒041-0821 北海道函館市港町１丁目３４−１",
    "latitude": 41.80088749999999,
    "longitude": 140.7220251,
    "locationType": "ROOFTOP",
    "placeId": "ChIJt0w5iuBLC18RIW9ZZfpoRGQ",
    "globalPlusCode": "8RH2RP2C+9R"
  },
  {
    "name": "函館花園町店",
    "prefecture": "北海道",
    "prefNum": 1,
    "gum": true,
    "stands": false,
    "file": true,
    "addressFormattedByGoogle": "日本、〒041-0843 北海道函館市花園町２６−３",
    "latitude": 41.7924735,
    "longitude": 140.7812621,
    "locationType": "ROOFTOP",
    "placeId": "ChIJJx0KxVj0nl8Rq2XANrR2zRs",
    "globalPlusCode": "8RH2QQRJ+XG"
  },
  {
    "name": "函館若松町店",
    "prefecture": "北海道",
    "prefNum": 1,
    "gum": true,
    "stands": false,
    "file": false,
    "addressFormattedByGoogle": "日本、〒040-0063 北海道函館市若松町７−１５ セブンイレブン函館若松町店",
    "latitude": 41.7720195,
    "longitude": 140.7274015,
    "locationType": "ROOFTOP",
    "placeId": "ChIJl5jNY5_znl8RxFmmg7fKksc",
    "globalPlusCode": "8RH2QPCG+RX"
  },
  {
    "name": "函館若松高砂通店",
    "prefecture": "北海道",
    "prefNum": 1,
    "gum": true,
    "stands": false,
    "file": false,
    "addressFormattedByGoogle": "日本、〒040-0063 北海道函館市若松町２７−１８",
    "latitude": 41.775607,
    "longitude": 140.7320793,
    "locationType": "ROOFTOP",
    "placeId": "ChIJ_4uT9pvznl8RO3L5ga6lBbo",
    "globalPlusCode": "8RH2QPGJ+6R"
  },
  {
    "name": "函館西桔梗町店",
    "prefecture": "北海道",
    "prefNum": 1,
    "gum": true,
    "stands": true,
    "file": false,
    "addressFormattedByGoogle": "日本、〒041-0824 北海道函館市西桔梗町８４９−１６ セブンイレブン函館西桔梗町店",
    "latitude": 41.823479,
    "longitude": 140.720781,
    "locationType": "ROOFTOP",
    "placeId": "ChIJbXSGvZX2nl8RLQpf4WKU_9g",
    "globalPlusCode": "8RH2RPFC+98"
  },
  {
    "name": "函館赤川通り店",
    "prefecture": "北海道",
    "prefNum": 1,
    "gum": true,
    "stands": false,
    "file": false,
    "addressFormattedByGoogle": "日本、〒041-0806 北海道函館市美原４丁目３８−１４",
    "latitude": 41.8241222,
    "longitude": 140.7600535,
    "locationType": "ROOFTOP",
    "placeId": "ChIJAQCQjnEHAWARtleAHW2G4HE",
    "globalPlusCode": "8RH2RQF6+J2"
  },
  {
    "name": "函館高松町店",
    "prefecture": "北海道",
    "prefNum": 1,
    "gum": true,
    "stands": false,
    "file": false,
    "addressFormattedByGoogle": "日本、〒042-0952 北海道函館市高松町３７５−７ セブンイレブン函館高松町店",
    "latitude": 41.77262,
    "longitude": 140.800461,
    "locationType": "ROOFTOP",
    "placeId": "ChIJ4Z1hsbj0nl8RlO5d_NP4el4",
    "globalPlusCode": "8RH2QRF2+25"
  },
  {
    "name": "北広島大曲中央店",
    "prefecture": "北海道",
    "prefNum": 1,
    "gum": true,
    "stands": false,
    "file": false,
    "addressFormattedByGoogle": "日本、〒061-1271 北海道北広島市大曲中央２丁目１−６",
    "latitude": 42.9726005,
    "longitude": 141.4781714,
    "locationType": "ROOFTOP",
    "placeId": "ChIJraen6KfVdF8RZsGgFZIchRg",
    "globalPlusCode": "8RJ3XFFH+27"
  },
  {
    "name": "北広島大曲柏葉店",
    "prefecture": "北海道",
    "prefNum": 1,
    "gum": true,
    "stands": false,
    "file": false,
    "addressFormattedByGoogle": "日本、〒061-1273 北海道北広島市大曲柏葉１丁目１−１９",
    "latitude": 42.9704577,
    "longitude": 141.4799863,
    "locationType": "ROOFTOP",
    "placeId": "ChIJEzswgFPVdF8R2woQhF8TMac",
    "globalPlusCode": "8RJ3XFCH+5X"
  },
  {
    "name": "北広島朝日町店",
    "prefecture": "北海道",
    "prefNum": 1,
    "gum": true,
    "stands": false,
    "file": false,
    "addressFormattedByGoogle": "日本、〒061-1123 北海道北広島市朝日町３丁目１−３",
    "latitude": 42.9877709,
    "longitude": 141.5699334,
    "locationType": "ROOFTOP",
    "placeId": "ChIJVVXSKKYIAWAR-_omCH1ltk0",
    "globalPlusCode": "8RJ3XHQ9+4X"
  },
  {
    "name": "北広島駅前店",
    "prefecture": "北海道",
    "prefNum": 1,
    "gum": true,
    "stands": false,
    "file": false,
    "addressFormattedByGoogle": "日本、〒061-1121 北海道北広島市中央６丁目１−２",
    "latitude": 42.9797914,
    "longitude": 141.5653678,
    "locationType": "ROOFTOP",
    "placeId": "ChIJAQAs6PYbAWAR26zbWcUNC4I",
    "globalPlusCode": "8RJ3XHH8+W4"
  },
  {
    "name": "北恵庭店",
    "prefecture": "北海道",
    "prefNum": 1,
    "gum": true,
    "stands": false,
    "file": true,
    "addressFormattedByGoogle": "日本、〒061-1433 北海道恵庭市北柏木町３丁目７５",
    "latitude": 42.901787,
    "longitude": 141.557278,
    "locationType": "ROOFTOP",
    "placeId": "ChIJiWn5msLXdF8Rz2CCiqWGGeQ",
    "globalPlusCode": "8RJ3WH24+PW"
  },
  {
    "name": "北斗七重浜店",
    "prefecture": "北海道",
    "prefNum": 1,
    "gum": true,
    "stands": false,
    "file": false,
    "addressFormattedByGoogle": "日本、〒049-0111 北海道北斗市七重浜８丁目１−１番１号",
    "latitude": 41.820445,
    "longitude": 140.6939861,
    "locationType": "ROOFTOP",
    "placeId": "ChIJVVXlrsIJAWARQ97b_ZfdBQU",
    "globalPlusCode": "8RH2RMCV+5H"
  },
  {
    "name": "北斗七重浜臨港通店",
    "prefecture": "北海道",
    "prefNum": 1,
    "gum": true,
    "stands": false,
    "file": false,
    "addressFormattedByGoogle": "日本、〒049-0111 北海道北斗市七重浜７丁目３−２４",
    "latitude": 41.8164689,
    "longitude": 140.702285,
    "locationType": "ROOFTOP",
    "placeId": "ChIJH8c4iSH3nl8R0Li9vzLfP1Q",
    "globalPlusCode": "8RH2RP82+HW"
  },
  {
    "name": "北斗中央インター店",
    "prefecture": "北海道",
    "prefNum": 1,
    "gum": true,
    "stands": false,
    "file": false,
    "addressFormattedByGoogle": "日本、〒049-0156 北海道北斗市中野通１９９−５",
    "latitude": 41.8276706,
    "longitude": 140.6478993,
    "locationType": "ROOFTOP",
    "placeId": "ChIJ1QgqwcTwnl8RPJk6iVtT8U8",
    "globalPlusCode": "8RH2RJHX+35"
  },
  {
    "name": "北斗中野通店",
    "prefecture": "北海道",
    "prefNum": 1,
    "gum": true,
    "stands": false,
    "file": false,
    "addressFormattedByGoogle": "日本、〒049-0156 北海道北斗市中野通１丁目５−５５",
    "latitude": 41.8282732,
    "longitude": 140.6559991,
    "locationType": "ROOFTOP",
    "placeId": "ChIJvfz-9NDwnl8RGsFyrh1ENvI",
    "globalPlusCode": "8RH2RMH4+89"
  },
  {
    "name": "北斗久根別店",
    "prefecture": "北海道",
    "prefNum": 1,
    "gum": true,
    "stands": false,
    "file": false,
    "addressFormattedByGoogle": "日本、〒041-0821 北海道北斗市久根別１丁目２３−１５",
    "latitude": 41.825374,
    "longitude": 140.675956,
    "locationType": "ROOFTOP",
    "placeId": "ChIJbRbcOSvxnl8RGnXviDblaxk",
    "globalPlusCode": "8RH2RMGG+49"
  },
  {
    "name": "北斗大野橋通店",
    "prefecture": "北海道",
    "prefNum": 1,
    "gum": true,
    "stands": false,
    "file": false,
    "addressFormattedByGoogle": "日本、〒041-1201 北海道北斗市本町２丁目１−１番５３号",
    "latitude": 41.8825856,
    "longitude": 140.6428385,
    "locationType": "ROOFTOP",
    "placeId": "ChIJrziQ_Zf6AGAR54B_DQKJhDc",
    "globalPlusCode": "8RH2VJMV+24"
  },
  {
    "name": "北斗本町店",
    "prefecture": "北海道",
    "prefNum": 1,
    "gum": true,
    "stands": false,
    "file": false,
    "addressFormattedByGoogle": "日本、〒041-1201 北海道北斗市本町５丁目３２−４５",
    "latitude": 41.8770224,
    "longitude": 140.6488394,
    "locationType": "ROOFTOP",
    "placeId": "ChIJbzvh2cf5nl8RMLFMMb0pSQU",
    "globalPlusCode": "8RH2VJGX+RG"
  },
  {
    "name": "北斗追分店",
    "prefecture": "北海道",
    "prefNum": 1,
    "gum": true,
    "stands": false,
    "file": false,
    "addressFormattedByGoogle": "日本、〒049-0101 北海道北斗市追分２丁目１５−４０",
    "latitude": 41.8265311,
    "longitude": 140.703593,
    "locationType": "ROOFTOP",
    "placeId": "ChIJC68WC8T2nl8RVUXbK2QhJ3Y",
    "globalPlusCode": "8RH2RPG3+JC"
  },
  {
    "name": "北斗飯生店",
    "prefecture": "北海道",
    "prefNum": 1,
    "gum": true,
    "stands": false,
    "file": false,
    "addressFormattedByGoogle": "日本、〒049-0161 北海道北斗市飯生２丁目１１−８",
    "latitude": 41.8178425,
    "longitude": 140.6411563,
    "locationType": "ROOFTOP",
    "placeId": "ChIJq6rGYaI5C18R4LyQB6Kr_i4",
    "globalPlusCode": "8RH2RJ9R+4F"
  },
  {
    "name": "北海道四季彩館北広島店",
    "prefecture": "北海道",
    "prefNum": 1,
    "gum": true,
    "stands": false,
    "file": false,
    "addressFormattedByGoogle": "日本、〒061-1121 北海道北広島市中央６丁目２０９",
    "latitude": 42.9789493,
    "longitude": 141.563154,
    "locationType": "ROOFTOP",
    "placeId": "ChIJYdFN9AXVdF8RMALLGSR2PfA",
    "globalPlusCode": "8RJ3XHH7+H7"
  },
  {
    "name": "北海道四季彩館東室蘭店",
    "prefecture": "北海道",
    "prefNum": 1,
    "gum": true,
    "stands": true,
    "file": true,
    "addressFormattedByGoogle": "日本、〒050-0083 北海道室蘭市東町２丁目２９−４",
    "latitude": 42.3487661,
    "longitude": 141.0254607,
    "locationType": "ROOFTOP",
    "placeId": "ChIJi0wirBran18R7QEHBTonoiw",
    "globalPlusCode": "8RJ382XG+G5"
  },
  {
    "name": "北海道四季彩館釧路店",
    "prefecture": "北海道",
    "prefNum": 1,
    "gum": true,
    "stands": true,
    "file": true,
    "addressFormattedByGoogle": "日本、〒085-0015 北海道釧路市北大通１４丁目１",
    "latitude": 42.9902114,
    "longitude": 144.3822735,
    "locationType": "ROOFTOP",
    "placeId": "ChIJt5ojymI9cl8R3CK64EDp_1w",
    "globalPlusCode": "8RJ6X9RJ+3W"
  },
  {
    "name": "北海道ST函館店",
    "prefecture": "北海道",
    "prefNum": 1,
    "gum": true,
    "stands": false,
    "file": false,
    "addressFormattedByGoogle": "日本、〒040-0063 北海道函館市若松町１２−１３ JR函館駅構内 1F",
    "latitude": 41.7737161,
    "longitude": 140.7261339,
    "locationType": "ROOFTOP",
    "placeId": "ChIJV64it5jznl8RgpNcSPOQc_c",
    "globalPlusCode": "8RH2QPFG+FF"
  },
  {
    "name": "北海道ST千歳店",
    "prefecture": "北海道",
    "prefNum": 1,
    "gum": true,
    "stands": true,
    "file": true,
    "addressFormattedByGoogle": "日本、〒066-0062 北海道千歳市千代田町７丁目 ＪＲ千歳駅構内",
    "latitude": 42.8279858,
    "longitude": 141.6520638,
    "locationType": "GEOMETRIC_CENTER",
    "placeId": "ChIJ__8bkujcAGARdhIjMCQ8j-I",
    "globalPlusCode": "8RJ3RMH2+5R"
  },
  {
    "name": "北海道ST地下鉄新さっぽろ店",
    "prefecture": "北海道",
    "prefNum": 1,
    "gum": true,
    "stands": false,
    "file": false,
    "addressFormattedByGoogle": "日本、〒004-0052 北海道札幌市厚別区厚別中央２条５丁目６−１",
    "latitude": 43.0389717,
    "longitude": 141.4739999,
    "locationType": "ROOFTOP",
    "placeId": "ChIJr2TKZJ4sC18R9RvQ8tVpqsI",
    "globalPlusCode": "8RM32FQF+HH"
  },
  {
    "name": "北海道ST大通店",
    "prefecture": "北海道",
    "prefNum": 1,
    "gum": true,
    "stands": true,
    "file": true,
    "addressFormattedByGoogle": "日本、〒060-0042 北海道札幌市中央区大通西３丁目 地下鉄大通駅構内",
    "latitude": 43.0598419,
    "longitude": 141.3522553,
    "locationType": "GEOMETRIC_CENTER",
    "placeId": "ChIJy70zx5wpC18RDAU57JVE8rE",
    "globalPlusCode": "8RM33952+WW"
  },
  {
    "name": "北海道ST小樽店",
    "prefecture": "北海道",
    "prefNum": 1,
    "gum": true,
    "stands": false,
    "file": false,
    "addressFormattedByGoogle": "日本、〒047-0032 北海道小樽市稲穂２丁目２２−１５",
    "latitude": 43.19788399999999,
    "longitude": 140.9935411,
    "locationType": "ROOFTOP",
    "placeId": "ChIJpV-PyKzhCl8RIiLik3MHOKQ",
    "globalPlusCode": "8RM25XXV+5C"
  },
  {
    "name": "北海道ST手稲店",
    "prefecture": "北海道",
    "prefNum": 1,
    "gum": true,
    "stands": true,
    "file": true,
    "addressFormattedByGoogle": "日本、〒006-0021 北海道札幌市手稲区手稲本町１条４丁目３−７",
    "latitude": 43.12014509999999,
    "longitude": 141.2437343,
    "locationType": "ROOFTOP",
    "placeId": "ChIJSay_iK8nC18R3YYqWcakUAg",
    "globalPlusCode": "8RM346CV+3F"
  },
  {
    "name": "北海道ST桑園店",
    "prefecture": "北海道",
    "prefNum": 1,
    "gum": true,
    "stands": true,
    "file": true,
    "addressFormattedByGoogle": "日本、〒060-0010 北海道札幌市中央区北１０条西１５丁目１−１",
    "latitude": 43.070794,
    "longitude": 141.3315806,
    "locationType": "ROOFTOP",
    "placeId": "ChIJAQA08nveAGAR9XzLskb1t0c",
    "globalPlusCode": "8RM338CJ+8J"
  },
  {
    "name": "北海道ST苫小牧店",
    "prefecture": "北海道",
    "prefNum": 1,
    "gum": true,
    "stands": false,
    "file": false,
    "addressFormattedByGoogle": "日本、〒053-0022 北海道苫小牧市表町６丁目４−３",
    "latitude": 42.6396795,
    "longitude": 141.5968394,
    "locationType": "ROOFTOP",
    "placeId": "ChIJIURcmcMQdV8RvtIvuZHCQN8",
    "globalPlusCode": "8RJ3JHQW+VP"
  },
  {
    "name": "北海道STJR白石店",
    "prefecture": "北海道",
    "prefNum": 1,
    "gum": true,
    "stands": false,
    "file": false,
    "addressFormattedByGoogle": "日本、〒003-0029 北海道札幌市白石区平和通３丁目北６−１",
    "latitude": 43.0547929,
    "longitude": 141.4137543,
    "locationType": "ROOFTOP",
    "placeId": "ChIJb-sVnusrC18RyI_ERHa4Ucc",
    "globalPlusCode": "8RM33C37+WG"
  },
  {
    "name": "北見ときわ店",
    "prefecture": "北海道",
    "prefNum": 1,
    "gum": true,
    "stands": true,
    "file": true,
    "addressFormattedByGoogle": "日本、〒090-0817 北海道北見市常盤町２丁目２−２８",
    "latitude": 43.7996743,
    "longitude": 143.888481,
    "locationType": "ROOFTOP",
    "placeId": "ChIJTQy5qQVXbV8R1BH-xBBG10E",
    "globalPlusCode": "8RM5QVXQ+V9"
  },
  {
    "name": "北見桜町店",
    "prefecture": "北海道",
    "prefNum": 1,
    "gum": true,
    "stands": false,
    "file": false,
    "addressFormattedByGoogle": "日本、〒090-0804 北海道北見市桜町５丁目６９番地",
    "latitude": 43.8084592,
    "longitude": 143.9081106,
    "locationType": "ROOFTOP",
    "placeId": "ChIJVVUVpITdDF8R1kosnm8gJ58",
    "globalPlusCode": "8RM5RW55+96"
  },
  {
    "name": "北見緑ヶ丘店",
    "prefecture": "北海道",
    "prefNum": 1,
    "gum": true,
    "stands": true,
    "file": true,
    "addressFormattedByGoogle": "日本、〒090-0067 北海道北見市緑ケ丘３丁目２６−３",
    "latitude": 43.82444599999999,
    "longitude": 143.872714,
    "locationType": "ROOFTOP",
    "placeId": "ChIJcwlTFpVWbV8RPPRVg1cK0Rc",
    "globalPlusCode": "8RM5RVFF+Q3"
  },
  {
    "name": "北見銀河橋店",
    "prefecture": "北海道",
    "prefNum": 1,
    "gum": true,
    "stands": true,
    "file": false,
    "addressFormattedByGoogle": "日本、〒099-0878 北海道北見市東相内町１７３",
    "latitude": 43.8009614,
    "longitude": 143.8209116,
    "locationType": "ROOFTOP",
    "placeId": "ChIJqRhT5DxWbV8Ru2E_kwgFKug",
    "globalPlusCode": "8RM5RR2C+99"
  },
  {
    "name": "北27条店",
    "prefecture": "北海道",
    "prefNum": 1,
    "gum": true,
    "stands": true,
    "file": true,
    "addressFormattedByGoogle": "日本、〒001-0027 北海道札幌市北区北２７条西１６丁目３−１５",
    "latitude": 43.0963766,
    "longitude": 141.323846,
    "locationType": "ROOFTOP",
    "placeId": "ChIJqa8WsO0oC18RxD--iPJdWMg",
    "globalPlusCode": "8RM338WF+HG"
  },
  {
    "name": "十勝御影店",
    "prefecture": "北海道",
    "prefNum": 1,
    "gum": true,
    "stands": false,
    "file": true,
    "addressFormattedByGoogle": "日本、〒089-0354 北海道上川郡清水町御影本通５丁目１６",
    "latitude": 42.946968,
    "longitude": 142.9400044,
    "locationType": "ROOFTOP",
    "placeId": "ChIJ-8xBZ0d4c18Ri4qszfnzar0",
    "globalPlusCode": "8RJ4WWWR+Q2"
  },
  {
    "name": "十勝池田利別店",
    "prefecture": "北海道",
    "prefNum": 1,
    "gum": true,
    "stands": false,
    "file": false,
    "addressFormattedByGoogle": "日本、〒083-0031 北海道中川郡池田町利別西町５−１",
    "latitude": 42.930601,
    "longitude": 143.428887,
    "locationType": "ROOFTOP",
    "placeId": "ChIJ11AmJrC8c18RzHalBr1_HjU",
    "globalPlusCode": "8RJ5WCJH+6H"
  },
  {
    "name": "千歳住吉3丁目店",
    "prefecture": "北海道",
    "prefNum": 1,
    "gum": true,
    "stands": true,
    "file": true,
    "addressFormattedByGoogle": "日本、〒066-0026 北海道千歳市住吉３丁目２−１",
    "latitude": 42.8329352,
    "longitude": 141.6626983,
    "locationType": "ROOFTOP",
    "placeId": "ChIJ7fVXyz5JbV8R9Tu-I06zWHk",
    "globalPlusCode": "8RJ3RMM7+53"
  },
  {
    "name": "千歳勇舞店",
    "prefecture": "北海道",
    "prefNum": 1,
    "gum": true,
    "stands": true,
    "file": false,
    "addressFormattedByGoogle": "日本、〒066-0078 北海道千歳市勇舞４丁目１−１６",
    "latitude": 42.8515062,
    "longitude": 141.6326253,
    "locationType": "ROOFTOP",
    "placeId": "ChIJ4S0FAbylbV8RM1TP93U5EXw",
    "globalPlusCode": "8RJ3VJ2M+J3"
  },
  {
    "name": "千歳千代田店",
    "prefecture": "北海道",
    "prefNum": 1,
    "gum": true,
    "stands": false,
    "file": true,
    "addressFormattedByGoogle": "日本、〒066-0062 北海道千歳市千代田町４丁目１３",
    "latitude": 42.8253533,
    "longitude": 141.6470179,
    "locationType": "ROOFTOP",
    "placeId": "ChIJQahNoogrC18R-5DbgU9T83s",
    "globalPlusCode": "8RJ3RJGW+4R"
  },
  {
    "name": "千歳富丘2丁目店",
    "prefecture": "北海道",
    "prefNum": 1,
    "gum": true,
    "stands": false,
    "file": false,
    "addressFormattedByGoogle": "日本、〒066-0034 北海道千歳市富丘２丁目１８−１",
    "latitude": 42.84028530000001,
    "longitude": 141.6476403,
    "locationType": "ROOFTOP",
    "placeId": "ChIJl9INXK7YdF8RtDGOn2hq8Fc",
    "globalPlusCode": "8RJ3RJRX+43"
  },
  {
    "name": "千歳富士4丁目店",
    "prefecture": "北海道",
    "prefNum": 1,
    "gum": true,
    "stands": false,
    "file": true,
    "addressFormattedByGoogle": "日本、〒066-0039 北海道千歳市富士４丁目１８−８",
    "latitude": 42.841785,
    "longitude": 141.6288515,
    "locationType": "ROOFTOP",
    "placeId": "ChIJzdC9TV8ndV8RIZp06lhyDhU",
    "globalPlusCode": "8RJ3RJRH+PG"
  },
  {
    "name": "千歳寿店",
    "prefecture": "北海道",
    "prefNum": 1,
    "gum": true,
    "stands": true,
    "file": true,
    "addressFormattedByGoogle": "日本、〒066-0023 北海道千歳市寿１丁目１−９",
    "latitude": 42.830276,
    "longitude": 141.683775,
    "locationType": "ROOFTOP",
    "placeId": "ChIJ_f7_7UDfdF8R0HB8JawFTOE",
    "globalPlusCode": "8RJ3RMJM+4G"
  },
  {
    "name": "千歳新富店",
    "prefecture": "北海道",
    "prefNum": 1,
    "gum": true,
    "stands": true,
    "file": true,
    "addressFormattedByGoogle": "日本、〒066-0037 北海道千歳市新富１丁目７−２２",
    "latitude": 42.8296941,
    "longitude": 141.635547,
    "locationType": "ROOFTOP",
    "placeId": "ChIJAVx3r5QqC18R60pmMvE1jIM",
    "globalPlusCode": "8RJ3RJHP+V6"
  },
  {
    "name": "千歳朝日町店",
    "prefecture": "北海道",
    "prefNum": 1,
    "gum": true,
    "stands": false,
    "file": true,
    "addressFormattedByGoogle": "日本、〒066-0043 北海道千歳市朝日町４丁目３７−１",
    "latitude": 42.81951189999999,
    "longitude": 141.652984,
    "locationType": "ROOFTOP",
    "placeId": "ChIJ-WxWSyZXbV8RJP5YCY_u-2w",
    "globalPlusCode": "8RJ3RM93+R5"
  },
  {
    "name": "千歳自由ケ丘店",
    "prefecture": "北海道",
    "prefNum": 1,
    "gum": true,
    "stands": false,
    "file": false,
    "addressFormattedByGoogle": "日本、〒066-0072 北海道千歳市自由ケ丘２丁目１８−４",
    "latitude": 42.8336678,
    "longitude": 141.6197502,
    "locationType": "ROOFTOP",
    "placeId": "ChIJvTU2d0UndV8RTHf4t9hJ4ik",
    "globalPlusCode": ""
  },
  {
    "name": "千歳高台店",
    "prefecture": "北海道",
    "prefNum": 1,
    "gum": true,
    "stands": false,
    "file": false,
    "addressFormattedByGoogle": "日本、〒066-0035 北海道千歳市高台２丁目６−２０",
    "latitude": 42.834574,
    "longitude": 141.650371,
    "locationType": "ROOFTOP",
    "placeId": "ChIJ42csU6vYdF8RanijHwJAxxQ",
    "globalPlusCode": "8RJ3RMM2+R4"
  },
  {
    "name": "南幌元町店",
    "prefecture": "北海道",
    "prefNum": 1,
    "gum": true,
    "stands": false,
    "file": false,
    "addressFormattedByGoogle": "日本、〒069-0238 北海道空知郡南幌町元町２丁目１−４",
    "latitude": 43.069986,
    "longitude": 141.6532782,
    "locationType": "ROOFTOP",
    "placeId": "ChIJ60sFvNjMdF8Rh_9MUUYUM3M",
    "globalPlusCode": "8RM33M93+X8"
  },
  {
    "name": "南7条店",
    "prefecture": "北海道",
    "prefNum": 1,
    "gum": true,
    "stands": true,
    "file": true,
    "addressFormattedByGoogle": "日本、〒064-0807 北海道札幌市中央区南７条西１１丁目２−７",
    "latitude": 43.050858,
    "longitude": 141.3418936,
    "locationType": "ROOFTOP",
    "placeId": "ChIJ7cR-QIwpC18RgJqbJhTd8-o",
    "globalPlusCode": "8RM3382R+8Q"
  },
  {
    "name": "厚沢部町店",
    "prefecture": "北海道",
    "prefNum": 1,
    "gum": true,
    "stands": false,
    "file": false,
    "addressFormattedByGoogle": "日本、〒043-1114 北海道檜山郡本町 厚沢部町本町４５ー１",
    "latitude": 41.914538,
    "longitude": 140.2273925,
    "locationType": "GEOMETRIC_CENTER",
    "placeId": "ChIJ8fswhh4cn18RqCzINkrilUM",
    "globalPlusCode": "8RH2W67G+RX"
  },
  {
    "name": "名寄中央店",
    "prefecture": "北海道",
    "prefNum": 1,
    "gum": true,
    "stands": false,
    "file": false,
    "addressFormattedByGoogle": "日本、〒096-0014 北海道名寄市西４条南４丁目１１",
    "latitude": 44.3518111,
    "longitude": 142.4574538,
    "locationType": "ROOFTOP",
    "placeId": "ChIJMRq4kkWUDV8RaNzb_fzJ0EQ",
    "globalPlusCode": "8RP49F24+PX"
  },
  {
    "name": "名寄徳田店",
    "prefecture": "北海道",
    "prefNum": 1,
    "gum": true,
    "stands": true,
    "file": true,
    "addressFormattedByGoogle": "日本、〒096-0071 北海道名寄市徳田２４９−２",
    "latitude": 44.32715229999999,
    "longitude": 142.4569809,
    "locationType": "ROOFTOP",
    "placeId": "ChIJqXqzYaKVDV8RQmJBDotflcg",
    "globalPlusCode": "8RP48FG4+VQ"
  },
  {
    "name": "名寄西1条店",
    "prefecture": "北海道",
    "prefNum": 1,
    "gum": true,
    "stands": true,
    "file": true,
    "addressFormattedByGoogle": "日本、〒096-0011 北海道名寄市西１条南６丁目１−２",
    "latitude": 44.3503398,
    "longitude": 142.4622936,
    "locationType": "ROOFTOP",
    "placeId": "ChIJwU94UEaUDV8R1HtRImtLwNc",
    "globalPlusCode": "8RP49F26+4W"
  },
  {
    "name": "名寄西10条店",
    "prefecture": "北海道",
    "prefNum": 1,
    "gum": true,
    "stands": true,
    "file": true,
    "addressFormattedByGoogle": "日本、〒096-0020 北海道名寄市西１０条南８丁目４８−４",
    "latitude": 44.3479195,
    "longitude": 142.4497433,
    "locationType": "ROOFTOP",
    "placeId": "ChIJtfhHc0yUDV8RoC8ngZFwOKA",
    "globalPlusCode": "8RP48CXX+5V"
  },
  {
    "name": "和寒町店",
    "prefecture": "北海道",
    "prefNum": 1,
    "gum": true,
    "stands": false,
    "file": true,
    "addressFormattedByGoogle": "日本、〒098-0101 北海道上川郡和寒町日の出１１−３",
    "latitude": 44.0313936,
    "longitude": 142.4108573,
    "locationType": "ROOFTOP",
    "placeId": "ChIJO6u2dEcHDV8RdD3-CgqYTyY",
    "globalPlusCode": "8RP42CJ6+H8"
  },
  {
    "name": "地下鉄白石駅前店",
    "prefecture": "北海道",
    "prefNum": 1,
    "gum": true,
    "stands": true,
    "file": true,
    "addressFormattedByGoogle": "日本、〒003-0002 北海道札幌市白石区東札幌２条６丁目７−１４",
    "latitude": 43.0454249,
    "longitude": 141.3952923,
    "locationType": "ROOFTOP",
    "placeId": "ChIJHfTcxMkrC18RXjXe50MUEdc",
    "globalPlusCode": "8RM329WW+54"
  },
  {
    "name": "増毛町店",
    "prefecture": "北海道",
    "prefNum": 1,
    "gum": true,
    "stands": true,
    "file": true,
    "addressFormattedByGoogle": "日本、〒077-0215 北海道増毛郡増毛町暑寒町１丁目４番",
    "latitude": 43.8563574,
    "longitude": 141.5172146,
    "locationType": "ROOFTOP",
    "placeId": "ChIJ7aJQQ5F6DF8RJLRsBFUfbbw",
    "globalPlusCode": "8RM3VG48+GV"
  },
  {
    "name": "士別北1丁目店",
    "prefecture": "北海道",
    "prefNum": 1,
    "gum": true,
    "stands": true,
    "file": true,
    "addressFormattedByGoogle": "日本、〒095-0039 北海道士別市大通北１丁目１６０１−１",
    "latitude": 44.181875,
    "longitude": 142.390949,
    "locationType": "ROOFTOP",
    "placeId": "ChIJs2n-0OKkDV8RMpRL_YXcMgc",
    "globalPlusCode": "8RP459JR+P9"
  },
  {
    "name": "士別南町店",
    "prefecture": "北海道",
    "prefNum": 1,
    "gum": true,
    "stands": true,
    "file": true,
    "addressFormattedByGoogle": "日本、〒095-0029 北海道士別市大通西１５丁目３１４２−４１",
    "latitude": 44.1662847,
    "longitude": 142.3946992,
    "locationType": "ROOFTOP",
    "placeId": "ChIJq6rOKprVdF8R6VrLm2e6Pos",
    "globalPlusCode": "8RP4598V+GV"
  },
  {
    "name": "士別東6条店",
    "prefecture": "北海道",
    "prefNum": 1,
    "gum": true,
    "stands": true,
    "file": true,
    "addressFormattedByGoogle": "日本、〒095-0016 北海道士別市東６条８丁目１６０７",
    "latitude": 44.1747852,
    "longitude": 142.4019532,
    "locationType": "ROOFTOP",
    "placeId": "ChIJEa9JfFWkDV8RSfXW3vKaagU",
    "globalPlusCode": "8RP45CF2+WQ"
  },
  {
    "name": "夕張紅葉山店",
    "prefecture": "北海道",
    "prefNum": 1,
    "gum": true,
    "stands": false,
    "file": false,
    "addressFormattedByGoogle": "日本、〒068-0755 北海道夕張市紅葉山４５４−１",
    "latitude": 42.9349503,
    "longitude": 142.0370449,
    "locationType": "ROOFTOP",
    "placeId": "ChIJq6oWqXQpC18RNVHzJHXpOPs",
    "globalPlusCode": "8RJ4W2MP+XR"
  },
  {
    "name": "女満別店",
    "prefecture": "北海道",
    "prefNum": 1,
    "gum": true,
    "stands": true,
    "file": true,
    "addressFormattedByGoogle": "日本、〒099-2310 北海道網走郡大空町女満別本通５丁目２−３１",
    "latitude": 43.91418100000001,
    "longitude": 144.1754243,
    "locationType": "ROOFTOP",
    "placeId": "ChIJ8535hbJJbV8R7PN5RjJElM0",
    "globalPlusCode": "8RM6W57G+M5"
  },
  {
    "name": "安平早来店",
    "prefecture": "北海道",
    "prefNum": 1,
    "gum": true,
    "stands": false,
    "file": false,
    "addressFormattedByGoogle": "日本、〒059-1501 北海道勇払郡安平町早来大町１２７−４",
    "latitude": 42.7667363,
    "longitude": 141.8195322,
    "locationType": "ROOFTOP",
    "placeId": "ChIJLRxRKKbhdF8RgTKM5eJTmP4",
    "globalPlusCode": "8RJ3QR89+MR"
  },
  {
    "name": "室蘭中央町店",
    "prefecture": "北海道",
    "prefNum": 1,
    "gum": true,
    "stands": false,
    "file": true,
    "addressFormattedByGoogle": "日本、〒051-0011 北海道室蘭市中央町３丁目２−１",
    "latitude": 42.3159639,
    "longitude": 140.9742963,
    "locationType": "ROOFTOP",
    "placeId": "ChIJU_yMOwrQn18RNfT8He2WPCo",
    "globalPlusCode": "8RJ28X8F+9P"
  },
  {
    "name": "室蘭中島町2丁目東店",
    "prefecture": "北海道",
    "prefNum": 1,
    "gum": true,
    "stands": false,
    "file": true,
    "addressFormattedByGoogle": "日本、〒050-0074 北海道室蘭市中島町２丁目１９−７",
    "latitude": 42.3504133,
    "longitude": 141.0197603,
    "locationType": "ROOFTOP",
    "placeId": "ChIJkVzVrx7WCl8RfRELEhqtEXc",
    "globalPlusCode": "8RJ39229+5W"
  },
  {
    "name": "室蘭本輪西店",
    "prefecture": "北海道",
    "prefNum": 1,
    "gum": true,
    "stands": false,
    "file": false,
    "addressFormattedByGoogle": "日本、〒050-0063 北海道室蘭市港北町１丁目１０−１１",
    "latitude": 42.3609805,
    "longitude": 140.9864146,
    "locationType": "ROOFTOP",
    "placeId": "ChIJdcIqXDXan18R9Tn5UAEpIbg",
    "globalPlusCode": "8RJ29X6P+9H"
  },
  {
    "name": "室蘭東町5丁目店",
    "prefecture": "北海道",
    "prefNum": 1,
    "gum": true,
    "stands": false,
    "file": false,
    "addressFormattedByGoogle": "日本、〒050-0083 北海道室蘭市東町５丁目２−４",
    "latitude": 42.341714,
    "longitude": 141.021528,
    "locationType": "ROOFTOP",
    "placeId": "ChIJ0-TNfwvan18RdpTnDrbKtHI",
    "globalPlusCode": "8RJ382RC+MJ"
  },
  {
    "name": "室蘭母恋北町店",
    "prefecture": "北海道",
    "prefNum": 1,
    "gum": true,
    "stands": false,
    "file": true,
    "addressFormattedByGoogle": "日本、〒051-0004 北海道室蘭市母恋北町１丁目３−１７",
    "latitude": 42.3158369,
    "longitude": 140.9903065,
    "locationType": "ROOFTOP",
    "placeId": "ChIJR7HT1-LRn18RJ4s62_gWRS0",
    "globalPlusCode": "8RJ28X8R+84"
  },
  {
    "name": "室蘭港南町店",
    "prefecture": "北海道",
    "prefNum": 1,
    "gum": true,
    "stands": false,
    "file": true,
    "addressFormattedByGoogle": "日本、〒051-0032 北海道室蘭市港南町１丁目６−７",
    "latitude": 42.3355703,
    "longitude": 140.9577465,
    "locationType": "ROOFTOP",
    "placeId": "ChIJHf0r6uvan18RWmpfho3Vv60",
    "globalPlusCode": "8RJ28XP5+63"
  },
  {
    "name": "室蘭知利別町店",
    "prefecture": "北海道",
    "prefNum": 1,
    "gum": true,
    "stands": true,
    "file": true,
    "addressFormattedByGoogle": "日本、〒050-0076 北海道室蘭市知利別町２丁目７−６",
    "latitude": 42.359765,
    "longitude": 141.022713,
    "locationType": "ROOFTOP",
    "placeId": "ChIJ9ZmTWyDan18R4XiJSJq0490",
    "globalPlusCode": "8RJ3925F+W3"
  },
  {
    "name": "富良野協会病院前店",
    "prefecture": "北海道",
    "prefNum": 1,
    "gum": true,
    "stands": false,
    "file": false,
    "addressFormattedByGoogle": "日本、〒076-0028 北海道富良野市錦町７−１",
    "latitude": 43.3495336,
    "longitude": 142.3916548,
    "locationType": "ROOFTOP",
    "placeId": "ChIJUZIlJmpNc18RLGzM8MfNzrg",
    "globalPlusCode": "8RM489XR+RM"
  },
  {
    "name": "富良野若松店",
    "prefecture": "北海道",
    "prefNum": 1,
    "gum": true,
    "stands": true,
    "file": false,
    "addressFormattedByGoogle": "日本、〒076-0032 北海道富良野市若松町１２−５",
    "latitude": 43.3428736,
    "longitude": 142.3854068,
    "locationType": "ROOFTOP",
    "placeId": "ChIJM6cMPGRNc18Rh-DdgWF9hD4",
    "globalPlusCode": "8RM489VP+45"
  },
  {
    "name": "小樽真栄店",
    "prefecture": "北海道",
    "prefNum": 1,
    "gum": true,
    "stands": true,
    "file": true,
    "addressFormattedByGoogle": "〒047-0003 北海道小樽市真栄１丁目２−２",
    "latitude": 43.1810994,
    "longitude": 141.0088494,
    "locationType": "ROOFTOP",
    "placeId": "ChIJhW3yIWDgCl8RTE0Uf8jMyNc",
    "globalPlusCode": ""
  },
  {
    "name": "小樽稲穂3丁目店",
    "prefecture": "北海道",
    "prefNum": 1,
    "gum": true,
    "stands": false,
    "file": false,
    "addressFormattedByGoogle": "日本、〒047-0032 北海道小樽市稲穂３丁目１５−１４",
    "latitude": 43.2007494,
    "longitude": 140.9957457,
    "locationType": "ROOFTOP",
    "placeId": "ChIJtTI6Y63hCl8R4uT2EmYKyQI",
    "globalPlusCode": "8RM26X2W+77"
  },
  {
    "name": "小樽稲穂5丁目店",
    "prefecture": "北海道",
    "prefNum": 1,
    "gum": true,
    "stands": true,
    "file": true,
    "addressFormattedByGoogle": "日本、〒047-0032 北海道小樽市稲穂５丁目４−１８",
    "latitude": 43.2048884,
    "longitude": 140.996836,
    "locationType": "ROOFTOP",
    "placeId": "ChIJA_qhQbHhCl8R8cl_UxpCtc0",
    "globalPlusCode": "8RM26X3W+XP"
  },
  {
    "name": "小樽船見坂下店",
    "prefecture": "北海道",
    "prefNum": 1,
    "gum": true,
    "stands": true,
    "file": true,
    "addressFormattedByGoogle": "日本、〒047-0032 北海道小樽市稲穂３丁目２０−１２",
    "latitude": 43.1998689,
    "longitude": 140.9934332,
    "locationType": "ROOFTOP",
    "placeId": "ChIJVVUB7-mbQTURU-47z55_3N8",
    "globalPlusCode": "8RM25XXV+W9"
  },
  {
    "name": "小樽長橋店",
    "prefecture": "北海道",
    "prefNum": 1,
    "gum": true,
    "stands": false,
    "file": false,
    "addressFormattedByGoogle": "日本、〒047-0036 北海道小樽市長橋３丁目２−１",
    "latitude": 43.208179,
    "longitude": 140.980117,
    "locationType": "ROOFTOP",
    "placeId": "ChIJ78O6eqPhCl8R1T5hmg7BZAw",
    "globalPlusCode": "8RM26X5J+72"
  },
  {
    "name": "小清水町店",
    "prefecture": "北海道",
    "prefNum": 1,
    "gum": true,
    "stands": true,
    "file": false,
    "addressFormattedByGoogle": "日本、〒099-3642 北海道斜里郡小清水町南町１丁目２１−２３",
    "latitude": 43.8520883,
    "longitude": 144.4662537,
    "locationType": "ROOFTOP",
    "placeId": "ChIJC86R5ik8bV8RL940dgJNwSY",
    "globalPlusCode": "8RM6VF28+RG"
  },
  {
    "name": "岩見沢中央通り店",
    "prefecture": "北海道",
    "prefNum": 1,
    "gum": true,
    "stands": true,
    "file": true,
    "addressFormattedByGoogle": "日本、〒068-0027 北海道岩見沢市７条西１丁目６−１",
    "latitude": 43.2007424,
    "longitude": 141.7688737,
    "locationType": "ROOFTOP",
    "placeId": "ChIJpSVwoc9LC18RRI_LdY1Jfmg",
    "globalPlusCode": "8RM36Q29+7G"
  },
  {
    "name": "岩見沢北本町西店",
    "prefecture": "北海道",
    "prefNum": 1,
    "gum": true,
    "stands": false,
    "file": true,
    "addressFormattedByGoogle": "日本、〒068-0053 北海道岩見沢市北本町西１丁目４−９",
    "latitude": 43.2107795,
    "longitude": 141.7592284,
    "locationType": "ROOFTOP",
    "placeId": "ChIJVVWAmtngAGARUWey9LKCN-s",
    "globalPlusCode": "8RM36Q65+8M"
  },
  {
    "name": "岩見沢北2条店",
    "prefecture": "北海道",
    "prefNum": 1,
    "gum": true,
    "stands": false,
    "file": false,
    "addressFormattedByGoogle": "日本、〒068-0042 北海道岩見沢市北２条西１１丁目１−１９",
    "latitude": 43.2037604,
    "longitude": 141.7522786,
    "locationType": "ROOFTOP",
    "placeId": "ChIJ5f5e-NRLC18RvCTMJie7YTk",
    "globalPlusCode": ""
  },
  {
    "name": "岩見沢南町店",
    "prefecture": "北海道",
    "prefNum": 1,
    "gum": true,
    "stands": true,
    "file": true,
    "addressFormattedByGoogle": "日本、〒068-0808 北海道岩見沢市南町８条２丁目３−１",
    "latitude": 43.1767982,
    "longitude": 141.7613432,
    "locationType": "ROOFTOP",
    "placeId": "ChIJBcDqOFxKC18RgmFLh-rLoYc",
    "globalPlusCode": "8RM35QG6+PG"
  },
  {
    "name": "岩見沢大和2条店",
    "prefecture": "北海道",
    "prefNum": 1,
    "gum": true,
    "stands": false,
    "file": false,
    "addressFormattedByGoogle": "日本、〒068-0852 北海道岩見沢市大和２条８丁目８−１",
    "latitude": 43.18771900000001,
    "longitude": 141.735864,
    "locationType": "ROOFTOP",
    "placeId": "ChIJWSU4dz1KC18RZsWRdCsdphs",
    "globalPlusCode": "8RM35PQP+38"
  },
  {
    "name": "岩見沢幌向店",
    "prefecture": "北海道",
    "prefNum": 1,
    "gum": true,
    "stands": false,
    "file": false,
    "addressFormattedByGoogle": "日本、〒069-0371 北海道岩見沢市幌向南１条１丁目３７−１０",
    "latitude": 43.1539296,
    "longitude": 141.6619381,
    "locationType": "ROOFTOP",
    "placeId": "ChIJ18NMmjY0C18RhbWPe9CIpNE",
    "globalPlusCode": "8RM35M36+HQ"
  },
  {
    "name": "岩見沢志文店",
    "prefecture": "北海道",
    "prefNum": 1,
    "gum": true,
    "stands": true,
    "file": true,
    "addressFormattedByGoogle": "日本、〒068-0832 北海道岩見沢市ふじ町２条４丁目２−１",
    "latitude": 43.164808,
    "longitude": 141.754456,
    "locationType": "ROOFTOP",
    "placeId": "ChIJAdJTP4hKC18R5smfuuuRGkI",
    "globalPlusCode": "8RM35Q73+WQ"
  },
  {
    "name": "岩見沢日の出町東店",
    "prefecture": "北海道",
    "prefNum": 1,
    "gum": true,
    "stands": false,
    "file": false,
    "addressFormattedByGoogle": "日本、〒068-0825 北海道岩見沢市日の出町２４−４",
    "latitude": 43.20505139999999,
    "longitude": 141.7845716,
    "locationType": "ROOFTOP",
    "placeId": "ChIJFTcU4OlLC18RhKodU3eJ05M",
    "globalPlusCode": "8RM36Q4M+2R"
  },
  {
    "name": "岩見沢東町店",
    "prefecture": "北海道",
    "prefNum": 1,
    "gum": true,
    "stands": false,
    "file": true,
    "addressFormattedByGoogle": "日本、〒068-0013 北海道岩見沢市東町１条７丁目９７８−１８",
    "latitude": 43.222528,
    "longitude": 141.797924,
    "locationType": "ROOFTOP",
    "placeId": "ChIJvYe6XgBMC18RhFgDSwH9hXQ",
    "globalPlusCode": "8RM36QFX+25"
  },
  {
    "name": "岩見沢美園店",
    "prefecture": "北海道",
    "prefNum": 1,
    "gum": true,
    "stands": false,
    "file": false,
    "addressFormattedByGoogle": "日本、〒068-0815 北海道岩見沢市美園５条７丁目１−２０",
    "latitude": 43.1855924,
    "longitude": 141.7606959,
    "locationType": "ROOFTOP",
    "placeId": "ChIJq6pe6zjmAGARZkeGpqEYbi4",
    "globalPlusCode": "8RM35QP6+67"
  },
  {
    "name": "岩見沢1条店",
    "prefecture": "北海道",
    "prefNum": 1,
    "gum": true,
    "stands": true,
    "file": true,
    "addressFormattedByGoogle": "日本、〒068-0021 北海道岩見沢市１条西３丁目３−２",
    "latitude": 43.204021,
    "longitude": 141.762464,
    "locationType": "ROOFTOP",
    "placeId": "ChIJlYO4dddLC18R3Szl7bW4m50",
    "globalPlusCode": "8RM36Q36+JX"
  },
  {
    "name": "岩見沢4条通店",
    "prefecture": "北海道",
    "prefNum": 1,
    "gum": true,
    "stands": false,
    "file": false,
    "addressFormattedByGoogle": "日本、〒068-0024 北海道岩見沢市４条西１８丁目１０",
    "latitude": 43.1951742,
    "longitude": 141.7494577,
    "locationType": "ROOFTOP",
    "placeId": "ChIJ2YX3SDkyC18RcM2mcDkO66I",
    "globalPlusCode": "8RM35PWX+3Q"
  },
  {
    "name": "帯広十勝大橋店",
    "prefecture": "北海道",
    "prefNum": 1,
    "gum": true,
    "stands": false,
    "file": false,
    "addressFormattedByGoogle": "日本、〒080-0033 北海道帯広市西３条北１丁目６−１",
    "latitude": 42.9319946,
    "longitude": 143.1987054,
    "locationType": "ROOFTOP",
    "placeId": "ChIJhxaWpTOZc18RIIaPDn4jxws",
    "globalPlusCode": "8RJ5W5JX+QF"
  },
  {
    "name": "帯広南5線店",
    "prefecture": "北海道",
    "prefNum": 1,
    "gum": true,
    "stands": false,
    "file": false,
    "addressFormattedByGoogle": "日本、〒080-0027 北海道帯広市西１７条南５丁目１１−５１",
    "latitude": 42.9049709,
    "longitude": 143.1730638,
    "locationType": "ROOFTOP",
    "placeId": "ChIJVVW5KAbbAGARRRlRkTeVgF8",
    "globalPlusCode": "8RJ5W53F+X6"
  },
  {
    "name": "帯広大正町店",
    "prefecture": "北海道",
    "prefNum": 1,
    "gum": true,
    "stands": true,
    "file": false,
    "addressFormattedByGoogle": "日本、〒089-1247 北海道帯広市昭和町基線１０５−１３",
    "latitude": 42.7897818,
    "longitude": 143.1621324,
    "locationType": "ROOFTOP",
    "placeId": "ChIJOVeDlk-Oc18RZeC399VngXA",
    "globalPlusCode": "8RJ5Q5Q6+WV"
  },
  {
    "name": "帯広大通南13丁目店",
    "prefecture": "北海道",
    "prefNum": 1,
    "gum": true,
    "stands": false,
    "file": false,
    "addressFormattedByGoogle": "日本、〒080-0010 北海道帯広市大通南１３丁目２−１",
    "latitude": 42.9179289,
    "longitude": 143.2062793,
    "locationType": "ROOFTOP",
    "placeId": "ChIJVVXBMEHmAGAR5Qx2cOyuzaQ",
    "globalPlusCode": "8RJ5W694+5G"
  },
  {
    "name": "帯広大通南22丁目店",
    "prefecture": "北海道",
    "prefNum": 1,
    "gum": true,
    "stands": false,
    "file": false,
    "addressFormattedByGoogle": "日本、〒080-0010 北海道帯広市大通南２２丁目５",
    "latitude": 42.90719319999999,
    "longitude": 143.2068032,
    "locationType": "ROOFTOP",
    "placeId": "ChIJJ0k9HHCZc18RR4uw_V4Rp1A",
    "globalPlusCode": "8RJ5W644+VP"
  },
  {
    "name": "帯広弥生通店",
    "prefecture": "北海道",
    "prefNum": 1,
    "gum": true,
    "stands": false,
    "file": false,
    "addressFormattedByGoogle": "日本、〒080-0020 北海道帯広市西１０条南２９丁目１−１",
    "latitude": 42.897974,
    "longitude": 143.192927,
    "locationType": "ROOFTOP",
    "placeId": "ChIJDR-Bu9abc18Ri-hBmKF6tmI",
    "globalPlusCode": "8RJ5V5XV+55"
  },
  {
    "name": "帯広明和店",
    "prefecture": "北海道",
    "prefNum": 1,
    "gum": true,
    "stands": true,
    "file": true,
    "addressFormattedByGoogle": "日本、〒080-2469 北海道帯広市西１９条南４丁目３４−４６",
    "latitude": 42.913207,
    "longitude": 143.155243,
    "locationType": "ROOFTOP",
    "placeId": "ChIJEeWO0PCbc18RnlVTcOVK5Xc",
    "globalPlusCode": "8RJ5W574+73"
  },
  {
    "name": "帯広春駒通西20条店",
    "prefecture": "北海道",
    "prefNum": 1,
    "gum": true,
    "stands": false,
    "file": false,
    "addressFormattedByGoogle": "日本、〒080-2470 北海道帯広市西２０条南４丁目１９−５",
    "latitude": 42.9084165,
    "longitude": 143.1519728,
    "locationType": "ROOFTOP",
    "placeId": "ChIJdbTYi_Kbc18RBIaP7zvPMak",
    "globalPlusCode": ""
  },
  {
    "name": "帯広東10条南7丁目店",
    "prefecture": "北海道",
    "prefNum": 1,
    "gum": true,
    "stands": false,
    "file": true,
    "addressFormattedByGoogle": "日本、〒080-0810 北海道帯広市東１０条南７丁目１−１９",
    "latitude": 42.92545,
    "longitude": 143.222583,
    "locationType": "ROOFTOP",
    "placeId": "ChIJVVXRf_wbUTURag4gW8oAUeQ",
    "globalPlusCode": "8RJ5W6GF+52"
  },
  {
    "name": "帯広東2条店",
    "prefecture": "北海道",
    "prefNum": 1,
    "gum": true,
    "stands": false,
    "file": false,
    "addressFormattedByGoogle": "日本、〒080-0802 北海道帯広市東２条南７丁目１６−１",
    "latitude": 42.9244291,
    "longitude": 143.2085317,
    "locationType": "ROOFTOP",
    "placeId": "ChIJR0wotX3bAGARn4EQRH-BlNw",
    "globalPlusCode": "8RJ5W6F5+QC"
  },
  {
    "name": "帯広稲田通店",
    "prefecture": "北海道",
    "prefNum": 1,
    "gum": true,
    "stands": false,
    "file": false,
    "addressFormattedByGoogle": "日本、〒080-0831 北海道帯広市稲田町南８線２０−９",
    "latitude": 42.8904655,
    "longitude": 143.1876577,
    "locationType": "ROOFTOP",
    "placeId": "ChIJr1iI1cybc18R85VTqtKomOg",
    "globalPlusCode": "8RJ5V5RQ+53"
  },
  {
    "name": "帯広自由が丘店",
    "prefecture": "北海道",
    "prefNum": 1,
    "gum": true,
    "stands": true,
    "file": true,
    "addressFormattedByGoogle": "日本、〒080-2469 北海道帯広市西１９条南５丁目２８−２",
    "latitude": 42.90398889999999,
    "longitude": 143.1595278,
    "locationType": "ROOFTOP",
    "placeId": "ChIJMT2D6p_kAGARwCXCM-q3ajo",
    "globalPlusCode": "8RJ5W535+HR"
  },
  {
    "name": "帯広若葉店",
    "prefecture": "北海道",
    "prefNum": 1,
    "gum": true,
    "stands": false,
    "file": false,
    "addressFormattedByGoogle": "日本、〒080-0026 北海道帯広市西１６条南６丁目１−１",
    "latitude": 42.9048177,
    "longitude": 143.1798937,
    "locationType": "ROOFTOP",
    "placeId": "ChIJm7TFLdybc18RQJcgBh_Ct14",
    "globalPlusCode": "8RJ5W53H+WX"
  },
  {
    "name": "帯広西1条店",
    "prefecture": "北海道",
    "prefNum": 1,
    "gum": true,
    "stands": false,
    "file": false,
    "addressFormattedByGoogle": "日本、〒080-0011 北海道帯広市西１条南９丁目１７−２",
    "latitude": 42.9216644,
    "longitude": 143.2034528,
    "locationType": "ROOFTOP",
    "placeId": "ChIJwwmpsziZc18RiwN5XRIgtK8",
    "globalPlusCode": "8RJ5W6C3+M9"
  },
  {
    "name": "帯広西17条競馬場通店",
    "prefecture": "北海道",
    "prefNum": 1,
    "gum": true,
    "stands": false,
    "file": false,
    "addressFormattedByGoogle": "日本、〒080-0027 北海道帯広市西１７条南３丁目５１",
    "latitude": 42.9188649,
    "longitude": 143.165282,
    "locationType": "ROOFTOP",
    "placeId": "ChIJIdKsaf6bc18RwDUTeYb3A1s",
    "globalPlusCode": "8RJ5W598+G4"
  },
  {
    "name": "帯広西19南4丁目店",
    "prefecture": "北海道",
    "prefNum": 1,
    "gum": true,
    "stands": true,
    "file": true,
    "addressFormattedByGoogle": "日本、〒080-2469 北海道帯広市西１９条南４丁目１４−９",
    "latitude": 42.9091104,
    "longitude": 143.1588886,
    "locationType": "ROOFTOP",
    "placeId": "ChIJwQb7Gu6bc18RpogCF8V0ozM",
    "globalPlusCode": "8RJ5W555+JH"
  },
  {
    "name": "帯広西21南5丁目店",
    "prefecture": "北海道",
    "prefNum": 1,
    "gum": true,
    "stands": true,
    "file": true,
    "addressFormattedByGoogle": "日本、〒080-2471 北海道帯広市西２１条南５丁目１８−１０",
    "latitude": 42.9042794,
    "longitude": 143.1457759,
    "locationType": "ROOFTOP",
    "placeId": "ChIJt31tGpKbc18RkEBZPbkGeVU",
    "globalPlusCode": "8RJ5W43W+P8"
  },
  {
    "name": "帯広西3条店",
    "prefecture": "北海道",
    "prefNum": 1,
    "gum": false,
    "stands": true,
    "file": false,
    "addressFormattedByGoogle": "日本、〒080-0013 北海道帯広市西３条南８丁目２−１",
    "latitude": 42.923358,
    "longitude": 143.200794,
    "locationType": "ROOFTOP",
    "placeId": "ChIJNd5oYziZc18RHJW77hDi9SI",
    "globalPlusCode": "8RJ5W6F2+88"
  },
  {
    "name": "帯広西5条南18丁目店",
    "prefecture": "北海道",
    "prefNum": 1,
    "gum": true,
    "stands": false,
    "file": false,
    "addressFormattedByGoogle": "日本、〒080-0015 北海道帯広市西５条南１８丁目２−１",
    "latitude": 42.9115683,
    "longitude": 143.199061,
    "locationType": "ROOFTOP",
    "placeId": "ChIJe96OVrSZc18RcpcfA1OkFeg",
    "globalPlusCode": "8RJ5W56X+JJ"
  },
  {
    "name": "帯広西8条春駒通店",
    "prefecture": "北海道",
    "prefNum": 1,
    "gum": true,
    "stands": false,
    "file": false,
    "addressFormattedByGoogle": "日本、〒080-0018 北海道帯広市西８条南１７丁目３−１",
    "latitude": 42.9116235,
    "longitude": 143.1931562,
    "locationType": "ROOFTOP",
    "placeId": "ChIJy-BNcWeZc18RgvpXPjeoM-M",
    "globalPlusCode": "8RJ5W56V+J7"
  },
  {
    "name": "帯広豊成店",
    "prefecture": "北海道",
    "prefNum": 1,
    "gum": true,
    "stands": true,
    "file": true,
    "addressFormattedByGoogle": "日本、〒080-0871 北海道帯広市清流東１丁目１−１",
    "latitude": 42.8812734,
    "longitude": 143.199754,
    "locationType": "ROOFTOP",
    "placeId": "ChIJH6deyDuac18RL-hkk5XhG_s",
    "globalPlusCode": "8RJ5V5JX+GW"
  },
  {
    "name": "幕別札内文京町店",
    "prefecture": "北海道",
    "prefNum": 1,
    "gum": true,
    "stands": false,
    "file": false,
    "addressFormattedByGoogle": "日本、〒089-0553 北海道中川郡幕別町札内文京町４０−６８",
    "latitude": 42.9097516,
    "longitude": 143.2475498,
    "locationType": "ROOFTOP",
    "placeId": "ChIJ_99jdqmZc18RBtZvk6LzyX0",
    "globalPlusCode": "8RJ5W65X+W2"
  },
  {
    "name": "幕別町札内暁店",
    "prefecture": "北海道",
    "prefNum": 1,
    "gum": true,
    "stands": false,
    "file": false,
    "addressFormattedByGoogle": "日本、〒089-0531 北海道中川郡幕別町札内暁町２７１−１０２",
    "latitude": 42.9166444,
    "longitude": 143.2660313,
    "locationType": "ROOFTOP",
    "placeId": "ChIJxcDGLFiYc18RV8I5PjkwdEM",
    "globalPlusCode": "8RJ5W788+MC"
  },
  {
    "name": "広尾並木通店",
    "prefecture": "北海道",
    "prefNum": 1,
    "gum": true,
    "stands": false,
    "file": false,
    "addressFormattedByGoogle": "日本、〒089-2623 北海道広尾郡並木通西２丁目 広尾町並木通西２ー４５",
    "latitude": 42.301088,
    "longitude": 143.3155198,
    "locationType": "GEOMETRIC_CENTER",
    "placeId": "ChIJNRmPU7yldl8R7y3mkzWEpak",
    "globalPlusCode": "8RJ58828+C6"
  },
  {
    "name": "弟子屈中央店",
    "prefecture": "北海道",
    "prefNum": 1,
    "gum": true,
    "stands": true,
    "file": true,
    "addressFormattedByGoogle": "日本、〒088-3214 北海道川上郡弟子屈町高栄１丁目４−５",
    "latitude": 43.48665,
    "longitude": 144.4549479,
    "locationType": "ROOFTOP",
    "placeId": "ChIJe-uIGpB4bV8R8m0gC-49pRA",
    "globalPlusCode": "8RM6FFP3+MX"
  },
  {
    "name": "当別太美店",
    "prefecture": "北海道",
    "prefNum": 1,
    "gum": true,
    "stands": false,
    "file": false,
    "addressFormattedByGoogle": "日本、〒061-3776 北海道石狩郡当別町太美町１４９３−８",
    "latitude": 43.1935958,
    "longitude": 141.4479211,
    "locationType": "ROOFTOP",
    "placeId": "ChIJGYjrX_Q6C18Rg_oRZFDI0Ks",
    "globalPlusCode": "8RM35CVX+C5"
  },
  {
    "name": "当別栄町店",
    "prefecture": "北海道",
    "prefNum": 1,
    "gum": true,
    "stands": false,
    "file": false,
    "addressFormattedByGoogle": "日本、〒061-0216 北海道石狩郡当別町栄町４４−１５６",
    "latitude": 43.2098479,
    "longitude": 141.5183285,
    "locationType": "ROOFTOP",
    "placeId": "ChIJq6o2_f0rC18RfgSdCnAFtbY",
    "globalPlusCode": "8RM36G59+W8"
  },
  {
    "name": "恵庭インター店",
    "prefecture": "北海道",
    "prefNum": 1,
    "gum": true,
    "stands": false,
    "file": false,
    "addressFormattedByGoogle": "日本、〒061-1427 北海道恵庭市美咲野４丁目１−１",
    "latitude": 42.877353,
    "longitude": 141.567403,
    "locationType": "ROOFTOP",
    "placeId": "ChIJAaXUD_kndV8RRFqJNXjRlNw",
    "globalPlusCode": "8RJ3VHG8+WX"
  },
  {
    "name": "恵庭バイパス店",
    "prefecture": "北海道",
    "prefNum": 1,
    "gum": true,
    "stands": true,
    "file": false,
    "addressFormattedByGoogle": "日本、〒061-1409 北海道恵庭市黄金南７丁目１８−６",
    "latitude": 42.8897994,
    "longitude": 141.6025046,
    "locationType": "ROOFTOP",
    "placeId": "ChIJf6LdmyTYdF8RRv0Kk4GSL7o",
    "globalPlusCode": "8RJ3VJQ3+W2"
  },
  {
    "name": "恵庭和光町店",
    "prefecture": "北海道",
    "prefNum": 1,
    "gum": true,
    "stands": true,
    "file": true,
    "addressFormattedByGoogle": "日本、〒061-1406 北海道恵庭市和光町２丁目１２−１４",
    "latitude": 42.8742405,
    "longitude": 141.5925734,
    "locationType": "ROOFTOP",
    "placeId": "ChIJE12H7p8oC18R-hr2jOKoOVw",
    "globalPlusCode": "8RJ3VHFV+M2"
  },
  {
    "name": "恵庭恵み野西店",
    "prefecture": "北海道",
    "prefNum": 1,
    "gum": true,
    "stands": true,
    "file": true,
    "addressFormattedByGoogle": "日本、〒061-1373 北海道恵庭市恵み野西３丁目１−２",
    "latitude": 42.8995067,
    "longitude": 141.5804954,
    "locationType": "ROOFTOP",
    "placeId": "ChIJK0O7eo3XdF8REjLnzhQYRtM",
    "globalPlusCode": "8RJ3VHXJ+R5"
  },
  {
    "name": "恵庭有明町店",
    "prefecture": "北海道",
    "prefNum": 1,
    "gum": true,
    "stands": false,
    "file": true,
    "addressFormattedByGoogle": "日本、〒061-1431 北海道恵庭市有明町１丁目２−１１",
    "latitude": 42.888869,
    "longitude": 141.57023,
    "locationType": "ROOFTOP",
    "placeId": "ChIJYTzhqPnXdF8RMi9ZyimsFgI",
    "globalPlusCode": "8RJ3VHQC+G3"
  },
  {
    "name": "恵庭柏陽町店",
    "prefecture": "北海道",
    "prefNum": 1,
    "gum": true,
    "stands": true,
    "file": false,
    "addressFormattedByGoogle": "日本、〒061-1434 北海道恵庭市柏陽町３丁目１２−５",
    "latitude": 42.895779,
    "longitude": 141.571143,
    "locationType": "ROOFTOP",
    "placeId": "ChIJeTgm5vHXdF8RAttSPoiwiNQ",
    "globalPlusCode": "8RJ3VHWC+8F"
  },
  {
    "name": "恵庭泉町店",
    "prefecture": "北海道",
    "prefNum": 1,
    "gum": true,
    "stands": false,
    "file": true,
    "addressFormattedByGoogle": "日本、〒061-1415 北海道恵庭市泉町７３−２",
    "latitude": 42.877463,
    "longitude": 141.579241,
    "locationType": "ROOFTOP",
    "placeId": "ChIJ__9vP47jGGARzUQAojpFJgA",
    "globalPlusCode": "8RJ3VHGH+XM"
  },
  {
    "name": "恵庭駅前店",
    "prefecture": "北海道",
    "prefNum": 1,
    "gum": true,
    "stands": true,
    "file": true,
    "addressFormattedByGoogle": "日本、〒061-1448 北海道恵庭市相生町１丁目６−１１７−１",
    "latitude": 42.881498,
    "longitude": 141.583995,
    "locationType": "ROOFTOP",
    "placeId": "ChIJIea7QgXYdF8RQKyBrinNu2w",
    "globalPlusCode": "8RJ3VHJM+HH"
  },
  {
    "name": "恵庭駒場町店",
    "prefecture": "北海道",
    "prefNum": 1,
    "gum": false,
    "stands": false,
    "file": true,
    "addressFormattedByGoogle": "日本、〒061-1417 北海道恵庭市駒場町６丁目２−８",
    "latitude": 42.8714041,
    "longitude": 141.5861427,
    "locationType": "ROOFTOP",
    "placeId": "ChIJVVWlPH7FAGARNm91399UTM0",
    "globalPlusCode": "8RJ3VHCP+HF"
  },
  {
    "name": "恵庭黄金北店",
    "prefecture": "北海道",
    "prefNum": 1,
    "gum": true,
    "stands": true,
    "file": true,
    "addressFormattedByGoogle": "日本、〒061-1407 北海道恵庭市黄金北１丁目１２−６",
    "latitude": 42.8923007,
    "longitude": 141.5864551,
    "locationType": "ROOFTOP",
    "placeId": "ChIJXW7YXvXXdF8ROQd28j0G-5E",
    "globalPlusCode": "8RJ3VHRP+WH"
  },
  {
    "name": "新得町南店",
    "prefecture": "北海道",
    "prefNum": 1,
    "gum": true,
    "stands": true,
    "file": true,
    "addressFormattedByGoogle": "日本、〒081-0014 北海道上川郡新得町４条南５丁目７",
    "latitude": 43.0784493,
    "longitude": 142.8405424,
    "locationType": "ROOFTOP",
    "placeId": "ChIJnwyPMK5vc18RiCvHD-c2Lek",
    "globalPlusCode": "8RM43RHR+96"
  },
  {
    "name": "新札幌バスターミナル前店",
    "prefecture": "北海道",
    "prefNum": 1,
    "gum": true,
    "stands": false,
    "file": true,
    "addressFormattedByGoogle": "日本、〒004-0052 北海道札幌市厚別区厚別中央２条５丁目３−３５",
    "latitude": 43.03939829999999,
    "longitude": 141.470917,
    "locationType": "ROOFTOP",
    "placeId": "ChIJUagi7J0sC18RThPxIGQuWao",
    "globalPlusCode": "8RM32FQC+Q9"
  },
  {
    "name": "旭川動物園通り店",
    "prefecture": "北海道",
    "prefNum": 1,
    "gum": true,
    "stands": false,
    "file": false,
    "addressFormattedByGoogle": "日本、〒078-8203 北海道旭川市東旭川町日ノ出５１−３",
    "latitude": 43.7692934,
    "longitude": 142.4634617,
    "locationType": "ROOFTOP",
    "placeId": "ChIJk3bObS_nDF8Rmczsd3-M79w",
    "globalPlusCode": "8RM4QF97+P9"
  },
  {
    "name": "旭川北彩都店",
    "prefecture": "北海道",
    "prefNum": 1,
    "gum": true,
    "stands": false,
    "file": false,
    "addressFormattedByGoogle": "日本、〒070-0030 北海道旭川市宮下通１０丁目１２７１",
    "latitude": 43.7631643,
    "longitude": 142.3617647,
    "locationType": "ROOFTOP",
    "placeId": "ChIJVVUF7GkDAWARsTytrGXYRaw",
    "globalPlusCode": "8RM4Q976+7P"
  },
  {
    "name": "旭川医大前店",
    "prefecture": "北海道",
    "prefNum": 1,
    "gum": true,
    "stands": false,
    "file": false,
    "addressFormattedByGoogle": "日本、〒078-8803 北海道旭川市緑が丘東３条１丁目２−１４",
    "latitude": 43.72948359999999,
    "longitude": 142.3800243,
    "locationType": "ROOFTOP",
    "placeId": "ChIJJ2FuuHboDF8RzfAJitnFLpU",
    "globalPlusCode": "8RM4P9HJ+Q2"
  },
  {
    "name": "旭川南1条店",
    "prefecture": "北海道",
    "prefNum": 1,
    "gum": true,
    "stands": true,
    "file": true,
    "addressFormattedByGoogle": "日本、〒078-8331 北海道旭川市南１条通２１丁目１９７４−１１６",
    "latitude": 43.7572986,
    "longitude": 142.3777981,
    "locationType": "ROOFTOP",
    "placeId": "ChIJB0aIETnmDF8RP9afDapuHhQ",
    "globalPlusCode": "8RM4Q94H+W4"
  },
  {
    "name": "旭川台場2条店",
    "prefecture": "北海道",
    "prefNum": 1,
    "gum": true,
    "stands": true,
    "file": true,
    "addressFormattedByGoogle": "日本、〒070-8072 北海道旭川市台場２条２丁目４−５",
    "latitude": 43.76785539999999,
    "longitude": 142.2823902,
    "locationType": "ROOFTOP",
    "placeId": "ChIJxx2ncD7vDF8RTN2ZBkZXPMI",
    "globalPlusCode": "8RM4Q79J+4X"
  },
  {
    "name": "旭川大町店",
    "prefecture": "北海道",
    "prefNum": 1,
    "gum": true,
    "stands": false,
    "file": false,
    "addressFormattedByGoogle": "日本、〒070-0842 北海道旭川市大町２条１０丁目１７３−５９",
    "latitude": 43.7919179,
    "longitude": 142.3527557,
    "locationType": "ROOFTOP",
    "placeId": "ChIJ5VGGycjlDF8RZvKGG2ABoXo",
    "globalPlusCode": "8RM4Q9R3+Q4"
  },
  {
    "name": "旭川川端店",
    "prefecture": "北海道",
    "prefNum": 1,
    "gum": true,
    "stands": false,
    "file": false,
    "addressFormattedByGoogle": "日本、〒070-0813 北海道旭川市川端町３条７丁目３−３",
    "latitude": 43.78302499999999,
    "longitude": 142.348576,
    "locationType": "ROOFTOP",
    "placeId": "ChIJV4XVG93lDF8Rsr57GACRzZw",
    "globalPlusCode": "8RM4Q8MX+6C"
  },
  {
    "name": "旭川忠和8条店",
    "prefecture": "北海道",
    "prefNum": 1,
    "gum": true,
    "stands": true,
    "file": true,
    "addressFormattedByGoogle": "日本、〒070-8048 北海道旭川市忠和８条６丁目１−２",
    "latitude": 43.76880939999999,
    "longitude": 142.3191645,
    "locationType": "ROOFTOP",
    "placeId": "ChIJp2tsslbvDF8Rlh435ADmHYI",
    "globalPlusCode": "8RM4Q899+GM"
  },
  {
    "name": "旭川新富2条店",
    "prefecture": "北海道",
    "prefNum": 1,
    "gum": true,
    "stands": true,
    "file": false,
    "addressFormattedByGoogle": "日本、〒070-0002 北海道旭川市新富２条１丁目１１−１７ セブンイレブン旭川新富２条店",
    "latitude": 43.786859,
    "longitude": 142.383383,
    "locationType": "ROOFTOP",
    "placeId": "ChIJbddRxYHmDF8RZRaPnx0QEe8",
    "globalPlusCode": "8RM4Q9PM+P9"
  },
  {
    "name": "旭川旭町2条店",
    "prefecture": "北海道",
    "prefNum": 1,
    "gum": true,
    "stands": false,
    "file": false,
    "addressFormattedByGoogle": "日本、〒070-0832 北海道旭川市旭町２条３丁目１１−４",
    "latitude": 43.784351,
    "longitude": 142.3591082,
    "locationType": "ROOFTOP",
    "placeId": "ChIJHVpcPNrlDF8Rz04P6p1AaKg",
    "globalPlusCode": "8RM4Q9M5+PJ"
  },
  {
    "name": "旭川旭神2条店",
    "prefecture": "北海道",
    "prefNum": 1,
    "gum": true,
    "stands": false,
    "file": false,
    "addressFormattedByGoogle": "日本、〒078-8372 北海道旭川市旭神２条４丁目１１−９",
    "latitude": 43.7359602,
    "longitude": 142.3878363,
    "locationType": "ROOFTOP",
    "placeId": "ChIJ0zAv_LEHAWARmsFi_jdP93E",
    "globalPlusCode": "8RM4P9PQ+94"
  },
  {
    "name": "旭川春光台店",
    "prefecture": "北海道",
    "prefNum": 1,
    "gum": true,
    "stands": true,
    "file": false,
    "addressFormattedByGoogle": "日本、〒071-8143 北海道旭川市春光台３条２丁目１−１９",
    "latitude": 43.8145357,
    "longitude": 142.3520785,
    "locationType": "ROOFTOP",
    "placeId": "ChIJtZ9YtVnkDF8RPzeSZ393a7M",
    "globalPlusCode": "8RM4R972+RR"
  },
  {
    "name": "旭川春光台2条店",
    "prefecture": "北海道",
    "prefNum": 1,
    "gum": true,
    "stands": false,
    "file": false,
    "addressFormattedByGoogle": "日本、〒071-8142 北海道旭川市春光台２条６丁目３−３",
    "latitude": 43.82162539999999,
    "longitude": 142.3655163,
    "locationType": "ROOFTOP",
    "placeId": "ChIJKYOeJGDkDF8R8CUaEsMVqC0",
    "globalPlusCode": "8RM4R9C8+M6"
  },
  {
    "name": "旭川曙店",
    "prefecture": "北海道",
    "prefNum": 1,
    "gum": true,
    "stands": true,
    "file": false,
    "addressFormattedByGoogle": "日本、〒070-0061 北海道旭川市曙１条７丁目１−４",
    "latitude": 43.7714596,
    "longitude": 142.3400077,
    "locationType": "ROOFTOP",
    "placeId": "ChIJO8QZvwvbAGARaNJwDEjKUR8",
    "globalPlusCode": "8RM4Q8CR+H2"
  },
  {
    "name": "旭川末広東1条店",
    "prefecture": "北海道",
    "prefNum": 1,
    "gum": true,
    "stands": true,
    "file": true,
    "addressFormattedByGoogle": "日本、〒071-8121 北海道旭川市末広東１条５丁目１−２７３−５",
    "latitude": 43.8054632,
    "longitude": 142.3899286,
    "locationType": "ROOFTOP",
    "placeId": "ChIJ0Xb2cxbkDF8RMVgxf_DzszU",
    "globalPlusCode": "8RM4R94Q+5X"
  },
  {
    "name": "旭川末広5条店",
    "prefecture": "北海道",
    "prefNum": 1,
    "gum": true,
    "stands": true,
    "file": true,
    "addressFormattedByGoogle": "日本、〒071-8135 北海道旭川市末広５条３丁目１−１６",
    "latitude": 43.8114372,
    "longitude": 142.3773377,
    "locationType": "ROOFTOP",
    "placeId": "ChIJ5TIh_0HkDF8RyUa5HVA9sz0",
    "globalPlusCode": "8RM4R96G+HW"
  },
  {
    "name": "旭川東光4丁目店",
    "prefecture": "北海道",
    "prefNum": 1,
    "gum": true,
    "stands": false,
    "file": false,
    "addressFormattedByGoogle": "日本、〒078-8343 北海道旭川市東光３条４丁目１−２４",
    "latitude": 43.753042,
    "longitude": 142.399491,
    "locationType": "ROOFTOP",
    "placeId": "ChIJv0qKZ0vmDF8RvFewcO1OkhU",
    "globalPlusCode": "8RM4Q93X+6Q"
  },
  {
    "name": "旭川東光8丁目店",
    "prefecture": "北海道",
    "prefNum": 1,
    "gum": true,
    "stands": false,
    "file": false,
    "addressFormattedByGoogle": "日本、〒078-8343 北海道旭川市東光３条８丁目１−１",
    "latitude": 43.7523094,
    "longitude": 142.4154973,
    "locationType": "ROOFTOP",
    "placeId": "ChIJq6omPkfmAGARM9Yk_lcrAkE",
    "globalPlusCode": "8RM4QC28+W5"
  },
  {
    "name": "旭川東光9条店",
    "prefecture": "北海道",
    "prefNum": 1,
    "gum": true,
    "stands": false,
    "file": false,
    "addressFormattedByGoogle": "日本、〒078-8349 北海道旭川市東光９条９丁目１−４",
    "latitude": 43.7458092,
    "longitude": 142.4194302,
    "locationType": "ROOFTOP",
    "placeId": "ChIJdXyFI7vnDF8RVeyGs8F3LTg",
    "globalPlusCode": "8RM4PCW9+8Q"
  },
  {
    "name": "旭川東警察署前店",
    "prefecture": "北海道",
    "prefNum": 1,
    "gum": true,
    "stands": false,
    "file": false,
    "addressFormattedByGoogle": "日本、〒078-8211 北海道旭川市１条通２５丁目４８９−３７",
    "latitude": 43.757299,
    "longitude": 142.386314,
    "locationType": "ROOFTOP",
    "placeId": "ChIJuYFpc-DgAGARiktOdtVZR_4",
    "globalPlusCode": "8RM4Q94P+WG"
  },
  {
    "name": "旭川東鷹栖1条店",
    "prefecture": "北海道",
    "prefNum": 1,
    "gum": true,
    "stands": true,
    "file": true,
    "addressFormattedByGoogle": "日本、〒071-8101 北海道旭川市東鷹栖１条３丁目６３５",
    "latitude": 43.826358,
    "longitude": 142.415183,
    "locationType": "ROOFTOP",
    "placeId": "ChIJLS5qi5HjDF8ReSuqoe0FRVM",
    "globalPlusCode": "8RM4RCG8+G3"
  },
  {
    "name": "旭川永山パワーズ店",
    "prefecture": "北海道",
    "prefNum": 1,
    "gum": true,
    "stands": true,
    "file": true,
    "addressFormattedByGoogle": "日本、〒079-8422 北海道旭川市永山１２条４丁目１１９−４６",
    "latitude": 43.7808695,
    "longitude": 142.4144966,
    "locationType": "ROOFTOP",
    "placeId": "ChIJl_kSeZPmDF8Rv33OsrYyo2E",
    "globalPlusCode": "8RM4QCJ7+8Q"
  },
  {
    "name": "旭川永山北2条店",
    "prefecture": "北海道",
    "prefNum": 1,
    "gum": true,
    "stands": false,
    "file": false,
    "addressFormattedByGoogle": "日本、〒079-8452 北海道旭川市永山北２条９丁目１７−２２",
    "latitude": 43.8149167,
    "longitude": 142.4287294,
    "locationType": "ROOFTOP",
    "placeId": "ChIJ1ZLze6XjDF8RuycwNxBpFO0",
    "globalPlusCode": "8RM4RC7H+XF"
  },
  {
    "name": "旭川永山21丁目店",
    "prefecture": "北海道",
    "prefNum": 1,
    "gum": true,
    "stands": false,
    "file": false,
    "addressFormattedByGoogle": "日本、〒079-8412 北海道旭川市永山２条２１丁目３−１２",
    "latitude": 43.81477510000001,
    "longitude": 142.4400544,
    "locationType": "ROOFTOP",
    "placeId": "ChIJqb0wAOTjDF8R6qV011ltBeg",
    "globalPlusCode": "8RM4RC7R+W2"
  },
  {
    "name": "旭川永山7丁目店",
    "prefecture": "北海道",
    "prefNum": 1,
    "gum": true,
    "stands": true,
    "file": false,
    "addressFormattedByGoogle": "日本、〒079-8417 北海道旭川市永山７条７丁目２−１ セブンイレブン旭川永山７丁目店",
    "latitude": 43.790085,
    "longitude": 142.413646,
    "locationType": "ROOFTOP",
    "placeId": "ChIJhS0W6qLmDF8Ra1EZ0mq4DkI",
    "globalPlusCode": "8RM4QCR7+2F"
  },
  {
    "name": "旭川神居雨紛店",
    "prefecture": "北海道",
    "prefNum": 1,
    "gum": true,
    "stands": true,
    "file": true,
    "addressFormattedByGoogle": "日本、〒070-8013 北海道旭川市神居３条２０丁目７０−２７",
    "latitude": 43.746897,
    "longitude": 142.3421246,
    "locationType": "ROOFTOP",
    "placeId": "ChIJ2ykfO5joDF8RckubzwAXf6E",
    "globalPlusCode": "8RM4P8WR+QR"
  },
  {
    "name": "旭川神居7条店",
    "prefecture": "北海道",
    "prefNum": 1,
    "gum": true,
    "stands": true,
    "file": true,
    "addressFormattedByGoogle": "日本、〒070-8017 北海道旭川市神居７条１丁目１−１５",
    "latitude": 43.768031,
    "longitude": 142.322804,
    "locationType": "ROOFTOP",
    "placeId": "ChIJN6IiR1TvDF8R89zg2sDjmZM",
    "globalPlusCode": "8RM4Q89F+64"
  },
  {
    "name": "旭川神楽岡14条店",
    "prefecture": "北海道",
    "prefNum": 1,
    "gum": true,
    "stands": false,
    "file": false,
    "addressFormattedByGoogle": "日本、〒078-8324 北海道旭川市神楽岡１４条５丁目１−７",
    "latitude": 43.738792,
    "longitude": 142.360312,
    "locationType": "ROOFTOP",
    "placeId": "ChIJu-qqB4foDF8R9DEJdB5O8y8",
    "globalPlusCode": "8RM4P9Q6+G4"
  },
  {
    "name": "旭川神楽岡5条店",
    "prefecture": "北海道",
    "prefNum": 1,
    "gum": true,
    "stands": false,
    "file": false,
    "addressFormattedByGoogle": "日本、〒078-8315 北海道旭川市神楽岡５条５丁目１−３０",
    "latitude": 43.7436815,
    "longitude": 142.3719637,
    "locationType": "ROOFTOP",
    "placeId": "ChIJFSQeuCvmDF8RiQR_2AgoiTM",
    "globalPlusCode": "8RM4P9VC+FQ"
  },
  {
    "name": "旭川緑町店",
    "prefecture": "北海道",
    "prefNum": 1,
    "gum": true,
    "stands": true,
    "file": true,
    "addressFormattedByGoogle": "日本、〒070-0823 北海道旭川市緑町２５丁目２１７４−９６",
    "latitude": 43.7956049,
    "longitude": 142.3214689,
    "locationType": "ROOFTOP",
    "placeId": "ChIJ429KL5jlDF8RYgD9bLddxRs",
    "globalPlusCode": "8RM4Q8WC+6H"
  },
  {
    "name": "旭川豊岡1条店",
    "prefecture": "北海道",
    "prefNum": 1,
    "gum": true,
    "stands": false,
    "file": false,
    "addressFormattedByGoogle": "日本、〒078-8231 北海道旭川市豊岡１条２丁目４−１９",
    "latitude": 43.75589919999999,
    "longitude": 142.394721,
    "locationType": "ROOFTOP",
    "placeId": "ChIJyZQKRUnmDF8Rmten3mf-x_Q",
    "globalPlusCode": "8RM4Q94V+9V"
  },
  {
    "name": "旭川豊岡10丁目店",
    "prefecture": "北海道",
    "prefNum": 1,
    "gum": true,
    "stands": false,
    "file": true,
    "addressFormattedByGoogle": "日本、〒078-8234 北海道旭川市豊岡４条１０丁目３−１２",
    "latitude": 43.7588172,
    "longitude": 142.4228487,
    "locationType": "ROOFTOP",
    "placeId": "ChIJ8R6GQgDnDF8RHMCg_dPtM_w",
    "globalPlusCode": "8RM4QC5F+G4"
  },
  {
    "name": "旭川豊岡3丁目店",
    "prefecture": "北海道",
    "prefNum": 1,
    "gum": true,
    "stands": true,
    "file": false,
    "addressFormattedByGoogle": "日本、〒078-8234 北海道旭川市豊岡４条３丁目３−１ セブンイレブン旭川豊岡３丁目店",
    "latitude": 43.760799,
    "longitude": 142.396077,
    "locationType": "ROOFTOP",
    "placeId": "ChIJZf6n9U_mDF8R2AL4Dr-cg2U",
    "globalPlusCode": "8RM4Q96W+8C"
  },
  {
    "name": "旭川近文店",
    "prefecture": "北海道",
    "prefNum": 1,
    "gum": true,
    "stands": false,
    "file": true,
    "addressFormattedByGoogle": "日本、〒070-0823 北海道旭川市緑町１５丁目２８８８−２",
    "latitude": 43.7865104,
    "longitude": 142.3328298,
    "locationType": "ROOFTOP",
    "placeId": "ChIJAQAwDcP5G2ARxGt3ZqQTbN8",
    "globalPlusCode": "8RM4Q8PM+J4"
  },
  {
    "name": "旭川3条7丁目店",
    "prefecture": "北海道",
    "prefNum": 1,
    "gum": true,
    "stands": true,
    "file": true,
    "addressFormattedByGoogle": "日本、〒070-0033 北海道旭川市３条通７丁目４２５−１ ヨネザワセブンビル 1階",
    "latitude": 43.7682815,
    "longitude": 142.3591614,
    "locationType": "ROOFTOP",
    "placeId": "ChIJL7q98Q3mDF8RlnJnlfnzALw",
    "globalPlusCode": "8RM4Q995+8M"
  },
  {
    "name": "旭川4条通3丁目店",
    "prefecture": "北海道",
    "prefNum": 1,
    "gum": true,
    "stands": false,
    "file": false,
    "addressFormattedByGoogle": "日本、〒070-0034 北海道旭川市４条通３丁目１６１６−１",
    "latitude": 43.7711241,
    "longitude": 142.3547428,
    "locationType": "ROOFTOP",
    "placeId": "ChIJ4bXkcJnnDF8RhYtPwjP42Pc",
    "globalPlusCode": "8RM4Q9C3+CV"
  },
  {
    "name": "旭川5条19丁目店",
    "prefecture": "北海道",
    "prefNum": 1,
    "gum": true,
    "stands": false,
    "file": true,
    "addressFormattedByGoogle": "日本、〒078-8215 北海道旭川市５条通１９丁目１７−１４０",
    "latitude": 43.7646275,
    "longitude": 142.3784941,
    "locationType": "ROOFTOP",
    "placeId": "ChIJ-QOneGrmDF8RJvmDL_ucI28",
    "globalPlusCode": "8RM4Q97H+V9"
  },
  {
    "name": "旭川5条7丁目店",
    "prefecture": "北海道",
    "prefNum": 1,
    "gum": true,
    "stands": false,
    "file": false,
    "addressFormattedByGoogle": "日本、〒070-0035 北海道旭川市５条通７丁目１６１５−８",
    "latitude": 43.7706845,
    "longitude": 142.3605044,
    "locationType": "ROOFTOP",
    "placeId": "ChIJy8VRHA3mDF8RPTf7WetGMXw",
    "globalPlusCode": "8RM4Q9C6+76"
  },
  {
    "name": "月寒東5条店",
    "prefecture": "北海道",
    "prefNum": 1,
    "gum": true,
    "stands": false,
    "file": false,
    "addressFormattedByGoogle": "日本、〒062-0055 北海道札幌市豊平区月寒東５条９丁目４−２０",
    "latitude": 43.0342896,
    "longitude": 141.411989,
    "locationType": "ROOFTOP",
    "placeId": "ChIJh_7-aqkrC18Rtn3WF3PR72E",
    "globalPlusCode": "8RM32CM6+PQ"
  },
  {
    "name": "月形町店",
    "prefecture": "北海道",
    "prefNum": 1,
    "gum": true,
    "stands": false,
    "file": false,
    "addressFormattedByGoogle": "日本、〒061-0516 北海道樺戸郡月形町知来乙２６２−１８",
    "latitude": 43.33103800000001,
    "longitude": 141.6634856,
    "locationType": "ROOFTOP",
    "placeId": "ChIJvY9k13JEC18RsME5UKrtunk",
    "globalPlusCode": "8RM38MJ7+C9"
  },
  {
    "name": "木古内町店",
    "prefecture": "北海道",
    "prefNum": 1,
    "gum": true,
    "stands": false,
    "file": false,
    "addressFormattedByGoogle": "日本、〒049-0412 北海道上磯郡木古内町大平 上磯郡上磯郡 木古内町字大平２６－４",
    "latitude": 41.6867474,
    "longitude": 140.445635,
    "locationType": "GEOMETRIC_CENTER",
    "placeId": "ChIJqdTVDv3Bnl8RyS6y6FEVyJc",
    "globalPlusCode": "8RH2MCPW+M7"
  },
  {
    "name": "本別町北店",
    "prefecture": "北海道",
    "prefNum": 1,
    "gum": true,
    "stands": false,
    "file": false,
    "addressFormattedByGoogle": "日本、〒089-3334 北海道中川郡本別町北１丁目４−１０",
    "latitude": 43.1230844,
    "longitude": 143.6112257,
    "locationType": "ROOFTOP",
    "placeId": "ChIJC7Q1hdNUcl8RJplFTshisDY",
    "globalPlusCode": "8RM54JF6+6F"
  },
  {
    "name": "札幌ひばりが丘店",
    "prefecture": "北海道",
    "prefNum": 1,
    "gum": true,
    "stands": false,
    "file": false,
    "addressFormattedByGoogle": "日本、〒004-0022 北海道札幌市厚別区厚別南１丁目２−２",
    "latitude": 43.0312218,
    "longitude": 141.4626437,
    "locationType": "ROOFTOP",
    "placeId": "ChIJ44EvC2grC18RVZEnd32j2fM",
    "globalPlusCode": "8RM32FJ7+F3"
  },
  {
    "name": "札幌三角点通り店",
    "prefecture": "北海道",
    "prefNum": 1,
    "gum": true,
    "stands": false,
    "file": false,
    "addressFormattedByGoogle": "日本、〒007-0812 北海道札幌市東区東苗穂１２条２丁目６−１５",
    "latitude": 43.104615,
    "longitude": 141.420184,
    "locationType": "ROOFTOP",
    "placeId": "ChIJsd3otu8uC18RZKkyQQcasks",
    "globalPlusCode": "8RM34C3C+R3"
  },
  {
    "name": "札幌中央南11条店",
    "prefecture": "北海道",
    "prefNum": 1,
    "gum": true,
    "stands": false,
    "file": false,
    "addressFormattedByGoogle": "日本、〒064-0811 北海道札幌市中央区南１１条西１３丁目１−２３",
    "latitude": 43.04505289999999,
    "longitude": 141.3378427,
    "locationType": "ROOFTOP",
    "placeId": "ChIJLb_ps_UpC18RHpypkIKzNMA",
    "globalPlusCode": "8RM328WQ+24"
  },
  {
    "name": "札幌伏古4条店",
    "prefecture": "北海道",
    "prefNum": 1,
    "gum": true,
    "stands": true,
    "file": true,
    "addressFormattedByGoogle": "日本、〒007-0864 北海道札幌市東区伏古４条３丁目４",
    "latitude": 43.0857744,
    "longitude": 141.3917091,
    "locationType": "ROOFTOP",
    "placeId": "ChIJbWdNUSgpC18RQOpfykpJLuw",
    "globalPlusCode": "8RM339PR+8M"
  },
  {
    "name": "札幌元町駅前店",
    "prefecture": "北海道",
    "prefNum": 1,
    "gum": true,
    "stands": false,
    "file": false,
    "addressFormattedByGoogle": "日本、〒065-0023 北海道札幌市東区北２３条東１５丁目４−１",
    "latitude": 43.0936339,
    "longitude": 141.370533,
    "locationType": "ROOFTOP",
    "placeId": "ChIJX_YtFSkpC18RbD_AVozATmI",
    "globalPlusCode": "8RM339VC+F6"
  },
  {
    "name": "札幌八軒5条西9丁目店",
    "prefecture": "北海道",
    "prefNum": 1,
    "gum": true,
    "stands": true,
    "file": true,
    "addressFormattedByGoogle": "日本、〒063-0845 北海道札幌市西区八軒５条西９丁目５−１",
    "latitude": 43.093321,
    "longitude": 141.3022458,
    "locationType": "ROOFTOP",
    "placeId": "ChIJ47Y1UGAoC18RBQDJTnV9JNM",
    "globalPlusCode": "8RM338V2+8V"
  },
  {
    "name": "札幌八軒6条西店",
    "prefecture": "北海道",
    "prefNum": 1,
    "gum": true,
    "stands": false,
    "file": false,
    "addressFormattedByGoogle": "日本、〒063-0846 北海道札幌市西区八軒６条西６丁目３−８",
    "latitude": 43.0923198,
    "longitude": 141.3066613,
    "locationType": "ROOFTOP",
    "placeId": "ChIJ13F3-V8oC18R6DnWBO80ZgA",
    "globalPlusCode": "8RM338R4+WM"
  },
  {
    "name": "札幌前田4条店",
    "prefecture": "北海道",
    "prefNum": 1,
    "gum": true,
    "stands": false,
    "file": false,
    "addressFormattedByGoogle": "日本、〒006-0814 北海道札幌市手稲区前田４条８丁目１−１",
    "latitude": 43.1197421,
    "longitude": 141.2562577,
    "locationType": "ROOFTOP",
    "placeId": "ChIJF35hirMnC18RYOSHo4B6TyA",
    "globalPlusCode": "8RM34794+VG"
  },
  {
    "name": "札幌前田8条店",
    "prefecture": "北海道",
    "prefNum": 1,
    "gum": true,
    "stands": false,
    "file": false,
    "addressFormattedByGoogle": "日本、〒006-0818 北海道札幌市手稲区前田８条１２丁目５−１２",
    "latitude": 43.1332092,
    "longitude": 141.2554986,
    "locationType": "ROOFTOP",
    "placeId": "ChIJ99x1TlYmC18RxCNax5nQWbI",
    "globalPlusCode": "8RM347M4+75"
  },
  {
    "name": "札幌北丘珠店",
    "prefecture": "北海道",
    "prefNum": 1,
    "gum": true,
    "stands": true,
    "file": true,
    "addressFormattedByGoogle": "日本、〒007-0881 北海道札幌市東区北丘珠１条３丁目６５４−３３ セブンイレブン札幌北丘珠店",
    "latitude": 43.1230896,
    "longitude": 141.4095357,
    "locationType": "ROOFTOP",
    "placeId": "ChIJwVow2gcvC18RkAjfN0GbFgo",
    "globalPlusCode": "8RM34CF5+6R"
  },
  {
    "name": "札幌北郷公園前店",
    "prefecture": "北海道",
    "prefNum": 1,
    "gum": true,
    "stands": false,
    "file": false,
    "addressFormattedByGoogle": "日本、〒003-0838 北海道札幌市白石区北郷８条１０丁目２−６０",
    "latitude": 43.0646998,
    "longitude": 141.4306861,
    "locationType": "ROOFTOP",
    "placeId": "ChIJMZkG8gksC18RvQhyFRZkvM8",
    "globalPlusCode": "8RM33C7J+V7"
  },
  {
    "name": "札幌北郷2条店",
    "prefecture": "北海道",
    "prefNum": 1,
    "gum": true,
    "stands": true,
    "file": true,
    "addressFormattedByGoogle": "日本、〒003-0832 北海道札幌市白石区北郷２条６丁目４−７",
    "latitude": 43.055166,
    "longitude": 141.419984,
    "locationType": "ROOFTOP",
    "placeId": "ChIJ__8PcJgpC18RspDJmJVsGO8",
    "globalPlusCode": "8RM33C49+3X"
  },
  {
    "name": "札幌北郷3条店",
    "prefecture": "北海道",
    "prefNum": 1,
    "gum": true,
    "stands": false,
    "file": false,
    "addressFormattedByGoogle": "日本、〒003-0833 北海道札幌市白石区北郷３条１１丁目８−２７",
    "latitude": 43.0506319,
    "longitude": 141.4347426,
    "locationType": "ROOFTOP",
    "placeId": "ChIJqcSjlI8rC18RBNun9PsxxnQ",
    "globalPlusCode": "8RM33C2M+7V"
  },
  {
    "name": "札幌北郷3条4丁目店",
    "prefecture": "北海道",
    "prefNum": 1,
    "gum": true,
    "stands": true,
    "file": true,
    "addressFormattedByGoogle": "日本、〒003-0833 北海道札幌市白石区北郷３条４丁目２−７",
    "latitude": 43.0597486,
    "longitude": 141.4144293,
    "locationType": "ROOFTOP",
    "placeId": "ChIJl9McRu4rC18RjgVZ8B-TPuw",
    "globalPlusCode": "8RM33C57+VQ"
  },
  {
    "name": "札幌北郷3条8丁目店",
    "prefecture": "北海道",
    "prefNum": 1,
    "gum": true,
    "stands": true,
    "file": true,
    "addressFormattedByGoogle": "日本、〒003-0833 北海道札幌市白石区北郷３条８丁目５−１",
    "latitude": 43.0524679,
    "longitude": 141.4255754,
    "locationType": "ROOFTOP",
    "placeId": "ChIJ9w_8OZIrC18R8fQrc90oejU",
    "globalPlusCode": "8RM33C2G+X6"
  },
  {
    "name": "札幌北郷4条店",
    "prefecture": "北海道",
    "prefNum": 1,
    "gum": false,
    "stands": true,
    "file": false,
    "addressFormattedByGoogle": "日本、〒003-0834 北海道札幌市白石区北郷４条１０丁目７−１１",
    "latitude": 43.0566494,
    "longitude": 141.4310009,
    "locationType": "ROOFTOP",
    "placeId": "ChIJq6o2maonC18RJsbRLrwivSQ",
    "globalPlusCode": "8RM33C4J+MC"
  },
  {
    "name": "札幌北郷5条店",
    "prefecture": "北海道",
    "prefNum": 1,
    "gum": true,
    "stands": true,
    "file": true,
    "addressFormattedByGoogle": "日本、〒003-0835 北海道札幌市白石区北郷５条３丁目１２−１",
    "latitude": 43.06439,
    "longitude": 141.4145522,
    "locationType": "ROOFTOP",
    "placeId": "ChIJ90dU9forC18RPYe_IqYEWRU",
    "globalPlusCode": "8RM33C77+QR"
  },
  {
    "name": "札幌北郷6条店",
    "prefecture": "北海道",
    "prefNum": 1,
    "gum": true,
    "stands": false,
    "file": false,
    "addressFormattedByGoogle": "日本、〒003-0836 北海道札幌市白石区北郷６条４丁目１−１７",
    "latitude": 43.0643592,
    "longitude": 141.4197959,
    "locationType": "ROOFTOP",
    "placeId": "ChIJVdZzsvArC18R0Z3HM5ytlxE",
    "globalPlusCode": "8RM33C79+PW"
  },
  {
    "name": "札幌北野3条店",
    "prefecture": "北海道",
    "prefNum": 1,
    "gum": true,
    "stands": true,
    "file": true,
    "addressFormattedByGoogle": "日本、〒004-0863 北海道札幌市清田区北野３条５丁目１７−１２",
    "latitude": 43.008028,
    "longitude": 141.446651,
    "locationType": "ROOFTOP",
    "placeId": "ChIJs9-SgCkrC18R2WbgktsaJY4",
    "globalPlusCode": "8RM32C5W+6M"
  },
  {
    "name": "札幌北野6条店",
    "prefecture": "北海道",
    "prefNum": 1,
    "gum": true,
    "stands": true,
    "file": true,
    "addressFormattedByGoogle": "日本、〒004-0866 北海道札幌市清田区北野６条２丁目１１−１",
    "latitude": 43.01915,
    "longitude": 141.435091,
    "locationType": "ROOFTOP",
    "placeId": "ChIJiWTyqBgrC18Rcvyq5t7yYFU",
    "globalPlusCode": "8RM32C9P+M2"
  },
  {
    "name": "札幌北11条東3丁目店",
    "prefecture": "北海道",
    "prefNum": 1,
    "gum": true,
    "stands": false,
    "file": false,
    "addressFormattedByGoogle": "日本、〒065-0011 北海道札幌市東区北１１条東３丁目２−２０",
    "latitude": 43.0755342,
    "longitude": 141.3572968,
    "locationType": "ROOFTOP",
    "placeId": "ChIJ3fysMBIpC18RMficzWzy2n0",
    "globalPlusCode": "8RM339G4+6W"
  },
  {
    "name": "札幌北12条東店",
    "prefecture": "北海道",
    "prefNum": 1,
    "gum": true,
    "stands": false,
    "file": false,
    "addressFormattedByGoogle": "日本、〒065-0012 北海道札幌市東区北１２条東１３丁目２−２５",
    "latitude": 43.078815,
    "longitude": 141.3733329,
    "locationType": "ROOFTOP",
    "placeId": "ChIJiRYIZV2EiV8RWsUsPIxPpyg",
    "globalPlusCode": "8RM339HF+G8"
  },
  {
    "name": "札幌北13条東駅前店",
    "prefecture": "北海道",
    "prefNum": 1,
    "gum": true,
    "stands": false,
    "file": false,
    "addressFormattedByGoogle": "日本、〒065-0013 北海道札幌市東区北１３条東１丁目２−１",
    "latitude": 43.0770523,
    "longitude": 141.353731,
    "locationType": "ROOFTOP",
    "placeId": "ChIJt-8DyBEpC18RIu7hiZWg4-k",
    "globalPlusCode": "8RM339G3+RF"
  },
  {
    "name": "札幌北15条東店",
    "prefecture": "北海道",
    "prefNum": 1,
    "gum": true,
    "stands": false,
    "file": false,
    "addressFormattedByGoogle": "日本、〒065-0015 北海道札幌市東区北１５条東１０丁目１−１",
    "latitude": 43.0812053,
    "longitude": 141.3675162,
    "locationType": "ROOFTOP",
    "placeId": "ChIJq6q6o5PmDF8RoghivJJl7KE",
    "globalPlusCode": "8RM339J9+F2"
  },
  {
    "name": "札幌北19条東店",
    "prefecture": "北海道",
    "prefNum": 1,
    "gum": true,
    "stands": false,
    "file": false,
    "addressFormattedByGoogle": "日本、〒065-0019 北海道札幌市東区北１９条東１９丁目４−２９",
    "latitude": 43.0869394,
    "longitude": 141.3804031,
    "locationType": "ROOFTOP",
    "placeId": "ChIJeSLHPTEpC18Rd1WEAAuRu_A",
    "globalPlusCode": "8RM339PJ+Q5"
  },
  {
    "name": "札幌北21条東15丁目店",
    "prefecture": "北海道",
    "prefNum": 1,
    "gum": true,
    "stands": false,
    "file": false,
    "addressFormattedByGoogle": "日本、〒065-0021 北海道札幌市東区北２１条東１５丁目４−２３",
    "latitude": 43.0905763,
    "longitude": 141.3721614,
    "locationType": "ROOFTOP",
    "placeId": "ChIJW3EAAy8pC18RVfzo2OxCaP4",
    "globalPlusCode": "8RM339RC+6V"
  },
  {
    "name": "札幌北22条店",
    "prefecture": "北海道",
    "prefNum": 1,
    "gum": true,
    "stands": false,
    "file": false,
    "addressFormattedByGoogle": "日本、〒005-0005 北海道札幌市北区北２２条西３丁目２−１５",
    "latitude": 43.088245,
    "longitude": 141.3453573,
    "locationType": "ROOFTOP",
    "placeId": "ChIJXbfZ6eEoC18RRNmhI9uNC5Y",
    "globalPlusCode": "8RM338QW+74"
  },
  {
    "name": "札幌北23条店",
    "prefecture": "北海道",
    "prefNum": 1,
    "gum": true,
    "stands": false,
    "file": false,
    "addressFormattedByGoogle": "日本、〒001-0023 北海道札幌市北区北２３条西６丁目２−４１",
    "latitude": 43.089609,
    "longitude": 141.340276,
    "locationType": "ROOFTOP",
    "placeId": "ChIJSWth4eMoC18RIhx8OO6wcY0",
    "globalPlusCode": "8RM338QR+R4"
  },
  {
    "name": "札幌北24条東店",
    "prefecture": "北海道",
    "prefNum": 1,
    "gum": true,
    "stands": true,
    "file": true,
    "addressFormattedByGoogle": "日本、〒065-0024 北海道札幌市東区北２４条東６丁目１−２５",
    "latitude": 43.09241129999999,
    "longitude": 141.3579041,
    "locationType": "ROOFTOP",
    "placeId": "ChIJ__8j464gdV8RKScvAfkV1zs",
    "globalPlusCode": "8RM339R5+X5"
  },
  {
    "name": "札幌北26条店",
    "prefecture": "北海道",
    "prefNum": 1,
    "gum": true,
    "stands": true,
    "file": true,
    "addressFormattedByGoogle": "日本、〒065-0026 北海道札幌市東区北２６条東１２丁目３−１",
    "latitude": 43.095961,
    "longitude": 141.365946,
    "locationType": "ROOFTOP",
    "placeId": "ChIJ05zuxTHkAGARjIokEu2ZQoU",
    "globalPlusCode": "8RM339W8+99"
  },
  {
    "name": "札幌北28条店",
    "prefecture": "北海道",
    "prefNum": 1,
    "gum": true,
    "stands": true,
    "file": true,
    "addressFormattedByGoogle": "日本、〒001-0028 北海道札幌市北区北２８条西５丁目２−３０",
    "latitude": 43.0952832,
    "longitude": 141.3413255,
    "locationType": "ROOFTOP",
    "placeId": "ChIJ_3qO2Xr6G2AR-biCXsPgSBk",
    "globalPlusCode": "8RM338WR+4G"
  },
  {
    "name": "札幌北29条店",
    "prefecture": "北海道",
    "prefNum": 1,
    "gum": true,
    "stands": false,
    "file": false,
    "addressFormattedByGoogle": "日本、〒001-0029 北海道札幌市北区北２９条西１０丁目２−７",
    "latitude": 43.0955702,
    "longitude": 141.3327068,
    "locationType": "ROOFTOP",
    "placeId": "ChIJITxodHYqC18R3ivKfdT5zlU",
    "globalPlusCode": "8RM338WM+63"
  },
  {
    "name": "札幌北31条店",
    "prefecture": "北海道",
    "prefNum": 1,
    "gum": true,
    "stands": false,
    "file": false,
    "addressFormattedByGoogle": "日本、〒001-0031 北海道札幌市北区北３１条西６丁目３−２５",
    "latitude": 43.0980626,
    "longitude": 141.3392813,
    "locationType": "ROOFTOP",
    "placeId": "ChIJ__8j464gdV8RfcWLUOHfVhk",
    "globalPlusCode": "8RM338XQ+6P"
  },
  {
    "name": "札幌北32条東8丁目店",
    "prefecture": "北海道",
    "prefNum": 1,
    "gum": true,
    "stands": true,
    "file": true,
    "addressFormattedByGoogle": "日本、〒065-0032 北海道札幌市東区北３２条東８丁目１−２９",
    "latitude": 43.1005336,
    "longitude": 141.3593673,
    "locationType": "ROOFTOP",
    "placeId": "ChIJTXtllH_mDF8RmbZ5TDN6HUg",
    "globalPlusCode": "8RM34925+6P"
  },
  {
    "name": "札幌北39条東16丁目店",
    "prefecture": "北海道",
    "prefNum": 1,
    "gum": false,
    "stands": true,
    "file": true,
    "addressFormattedByGoogle": "日本、〒007-0839 北海道札幌市東区北３９条東１６丁目２−１",
    "latitude": 43.11023369999999,
    "longitude": 141.3680396,
    "locationType": "ROOFTOP",
    "placeId": "ChIJs001_hkpC18RPqd_bK6oe0M",
    "globalPlusCode": "8RM34969+36"
  },
  {
    "name": "札幌北44条東店",
    "prefecture": "北海道",
    "prefNum": 1,
    "gum": true,
    "stands": false,
    "file": true,
    "addressFormattedByGoogle": "日本、〒063-0868 北海道札幌市東区北４４条東１丁目２−１",
    "latitude": 43.1126108,
    "longitude": 141.3450196,
    "locationType": "ROOFTOP",
    "placeId": "ChIJJ9CtPfkoC18RFUBm7RdpRDI",
    "globalPlusCode": "8RM3487W+22"
  },